deltaTime(s)	Time(s)	Roll(rad)	Pitch(rad)	Yaw(rad)	RollSpeed(rad/s)	PitchSpeed(rad/s)	YawSpeed(rad/s)	Motor1(PWM)	Motor2(PWM)	Motor3(PWM)	Motor4(PWM)	
0.06416011 	0.06416011	-0.01225895	0.02564603	1.74198842	-0.00043430	0.00002076	-0.00114360	900	900	900	900
0.30058122 	0.36474133	-0.01223339	0.02556071	1.74192035	-0.00014464	-0.00052752	0.00018094	900	900	900	900
0.16227102 	0.52701235	-0.01218924	0.02562401	1.74168456	0.00008073	-0.00003443	0.00057447	900	900	900	900
0.33165359 	0.85866594	-0.01217843	0.02558571	1.74154747	-0.00003593	-0.00025163	0.00020271	900	900	900	900
0.16623378 	1.02489972	-0.01224999	0.02558037	1.74147034	-0.00088735	-0.00077541	-0.00206161	900	900	900	900
0.33526325 	1.36016297	-0.01221719	0.02552589	1.74150074	-0.00065040	-0.00049789	0.00039454	900	900	900	900
0.21135139 	1.57151437	-0.01220375	0.02550699	1.74151051	0.00001378	0.00080294	0.00003432	900	900	900	900
0.19788098 	1.76939535	-0.01224462	0.02545444	1.74150813	-0.00125437	-0.00311168	0.00110446	900	900	900	900
0.25180149 	2.02119684	-0.01218801	0.02544755	1.74161923	-0.00043370	-0.00046095	0.00382272	900	900	900	900
0.24831462 	2.26951146	-0.01216609	0.02544030	1.74163878	0.00071573	-0.00059969	0.00040374	900	900	900	900
0.25178838 	2.52129984	-0.01216859	0.02542081	1.74170947	-0.00071918	-0.00035969	-0.00027349	900	900	900	900
0.29099107 	2.81229091	-0.01217346	0.02541073	1.74169147	0.00069300	0.00029628	0.00003613	900	900	900	900
0.30943203 	3.12172294	-0.01222213	0.02538550	1.74168921	0.00017988	0.00042589	0.00045470	900	900	900	900
0.19115686 	3.31287980	-0.01219725	0.02536437	1.74170506	-0.00027016	-0.00035028	-0.00023098	900	900	900	900
0.22563720 	3.53851700	-0.01221406	0.02535797	1.74174368	0.00019032	0.00039470	-0.00118695	900	900	900	900
0.26314878 	3.80166578	-0.01221780	0.02530950	1.74177933	0.00048858	0.00113732	-0.00115603	900	900	900	900
0.22863007 	4.03029585	-0.01220758	0.02526011	1.74173415	0.00036390	-0.00085188	0.00087745	900	900	900	900
0.24024129 	4.27053714	-0.01226197	0.02523014	1.74149513	0.00020131	-0.00030662	-0.00105386	900	900	900	900
0.25049210 	4.52102923	-0.01231065	0.02519322	1.74125302	-0.00035287	-0.00046973	-0.00174764	900	900	900	900
0.24759889 	4.76862812	-0.01234848	0.02522685	1.74130166	-0.00026494	0.00035120	0.00132131	900	900	900	900
0.26281333 	5.03144145	-0.01233288	0.02520018	1.74133444	-0.00017322	0.00089957	-0.00018413	900	900	900	900
0.29687619 	5.32831764	-0.01238438	0.02524196	1.74134958	0.00019796	0.00070435	-0.00106219	900	900	900	900
0.39102387 	5.71934152	-0.01241600	0.02522106	1.74133027	-0.00055955	0.00016852	-0.00371775	900	900	900	900
0.32161546 	6.04095697	-0.01241055	0.02519132	1.74140096	-0.00092113	-0.00077008	0.00309616	900	900	900	900
0.32414293 	6.36509991	-0.01242215	0.02516899	1.74139845	0.00037197	-0.00012354	0.00092253	900	900	900	900
0.32297111 	6.68807101	-0.01246921	0.02514791	1.74146998	-0.00042296	0.00045301	0.00084444	900	900	900	900
0.21372676 	6.90179777	-0.01248074	0.02516299	1.74144006	-0.00046964	0.00015225	-0.00010824	900	900	900	900
0.26860952 	7.17040730	-0.01250483	0.02519212	1.74151564	-0.00091799	-0.00027120	0.00034379	900	900	900	900
0.18383646 	7.35424376	-0.01246399	0.02517690	1.74153388	-0.00024996	-0.00085005	-0.00002180	900	900	900	900
0.25430560 	7.60854936	-0.01244766	0.02516294	1.74161959	0.00055296	0.00067491	-0.00127702	900	900	900	900
0.30603623 	7.91458559	-0.01245055	0.02514934	1.74167502	-0.00027593	0.00042446	0.00117735	900	900	900	900
0.18318844 	8.09777403	-0.01245145	0.02512676	1.74163735	0.00012325	-0.00050545	0.00193272	900	900	900	900
0.06225014 	8.16002417	-0.01243178	0.02515200	1.74143565	-0.00036080	0.00058621	-0.00081883	900	900	900	900
0.12559319 	8.28561735	-0.01247166	0.02519134	1.74121106	-0.00060358	0.00092962	-0.00001286	900	900	900	900
0.23111677 	8.51673412	-0.01242187	0.02519160	1.74096501	0.00086814	-0.00059960	0.00022991	900	900	900	900
0.30564475 	8.82237887	-0.01246780	0.02520553	1.74090350	0.00026650	-0.00023712	-0.00076467	900	900	900	900
0.22363710 	9.04601598	-0.01248379	0.02516283	1.74098420	-0.00066324	-0.00095572	0.00217454	900	900	900	900
0.32989359 	9.37590957	-0.01252860	0.02515412	1.74094594	-0.00061058	-0.00124327	0.00232589	900	900	900	900
0.29760265 	9.67351222	-0.01256840	0.02510975	1.74096286	-0.00083337	-0.00094694	-0.00054089	900	900	900	900
0.36026883 	10.03378105	-0.01253145	0.02512815	1.74111068	0.00065425	0.00005226	0.00345783	900	900	900	900
0.06440139 	10.09818244	-0.01252896	0.02522836	1.74092102	0.00078925	-0.00035862	-0.00035506	900	900	900	900
0.27140021 	10.36958265	-0.01255824	0.02519687	1.74109709	0.00024176	-0.00122584	0.00125706	900	900	900	900
0.34145212 	10.71103477	-0.01255563	0.02526224	1.74099541	-0.00011750	0.00119340	0.00127398	900	900	900	900
0.32025409 	11.03128886	-0.01263043	0.02518579	1.74106789	-0.00024014	0.00059794	-0.00187503	900	900	900	900
0.11642742 	11.14771628	-0.01259192	0.02529963	1.74105370	-0.00038668	-0.00131301	0.00031937	900	900	900	900
0.29524398 	11.44296026	-0.01258214	0.02532330	1.74110377	0.00057546	0.00241725	-0.00078997	900	900	900	900
0.63138390 	12.07434416	-0.01263642	0.02523743	1.74114001	-0.00017574	-0.00026412	0.00069312	900	900	900	900
0.60184312 	12.67618728	-0.01264065	0.02532403	1.74119318	0.00057909	-0.00198067	-0.00140750	900	900	900	900
0.45134163 	13.12752891	-0.01260114	0.02533734	1.74113011	0.00044104	0.00001726	0.00068002	900	900	900	900
0.04757118 	13.17510009	-0.01258793	0.02538528	1.74091387	0.00044821	0.00045055	-0.00049482	900	900	900	900
0.41917539 	13.59427547	-0.01259480	0.02542416	1.74076307	-0.00045730	-0.00054569	0.00013022	900	900	900	900
0.08203793 	13.67631340	-0.01257264	0.02549979	1.74067223	0.00042392	0.00105713	-0.00037954	900	900	900	900
0.24749732 	13.92381072	-0.01256660	0.02545899	1.74071276	-0.00041296	0.00048919	0.00028178	900	900	900	900
0.37312245 	14.29693317	-0.01254388	0.02551987	1.74055707	0.00042124	0.00107336	-0.00105990	900	900	900	900
0.14873624 	14.44566941	-0.01257329	0.02552370	1.74051809	0.00054126	0.00064536	-0.00055930	900	900	900	900
0.37156796 	14.81723738	-0.01249682	0.02552494	1.74036634	-0.00024946	-0.00129669	-0.00021412	900	900	900	900
0.16333032 	14.98056769	-0.01251103	0.02545786	1.74025536	-0.00033468	-0.00014679	-0.00098149	900	900	900	900
0.02895117 	15.00951886	-0.01252767	0.02544931	1.74011779	-0.00112681	-0.00136799	0.00177191	900	900	900	900
0.00556231 	15.01508117	-0.01254058	0.02552805	1.73997104	0.00002770	0.00153597	-0.00165493	900	900	900	900
0.00535440 	15.02043557	-0.01252696	0.02546075	1.73987424	-0.00083408	-0.00133709	0.00140718	900	900	900	900
0.14717436 	15.16760993	-0.01250491	0.02548527	1.73969734	0.00068413	0.00035690	-0.00048399	900	900	900	900
0.18780470 	15.35541463	-0.01247160	0.02544721	1.73958576	-0.00024524	-0.00060096	0.00004959	900	900	900	900
0.39665818 	15.75207281	-0.01246373	0.02544822	1.73948336	0.00042284	-0.00028906	-0.00037889	900	900	900	900
0.31889653 	16.07096934	-0.01246941	0.02544596	1.73936677	-0.00080230	-0.00033299	-0.00081776	900	900	900	900
0.18179989 	16.25276923	-0.01243437	0.02545955	1.73924279	-0.00137541	-0.00031297	0.00024012	900	900	900	900
0.19641423 	16.44918346	-0.01243083	0.02546196	1.73914766	0.00023879	0.00057215	-0.00075952	900	900	900	900
0.16373563 	16.61291909	-0.01241071	0.02551434	1.73898125	-0.00101920	0.00001205	-0.00051981	900	900	900	900
0.31733847 	16.93025756	-0.01245977	0.02548345	1.73897767	-0.00076790	-0.00099607	0.00168806	900	900	900	900
0.09789205 	17.02814960	-0.01241268	0.02552165	1.73879683	0.00051552	-0.00004481	-0.00035443	900	900	900	900
0.35967922 	17.38782883	-0.01237513	0.02550770	1.73869264	-0.00043776	0.00035713	0.00076282	900	900	900	900
0.38110662 	17.76893544	-0.01234141	0.02552762	1.73867679	0.00008157	0.00063913	0.00108936	900	900	900	900
0.50017786 	18.26911330	-0.01236828	0.02554036	1.73872268	-0.00083015	-0.00091101	-0.00032604	900	900	900	900
0.31976366 	18.58887696	-0.01238417	0.02552455	1.73875713	0.00046650	0.00080454	-0.00003745	900	900	900	900
0.04139376 	18.63027072	-0.01242195	0.02544894	1.73882961	-0.00064515	0.00121860	0.00030007	900	900	900	900
0.04371381 	18.67398453	-0.01237135	0.02540753	1.73885632	-0.00118959	-0.00208797	-0.00105997	900	900	900	900
0.08942509 	18.76340961	-0.01232914	0.02542817	1.73894250	-0.00019457	0.00042554	0.00137123	900	900	900	900
0.31032825 	19.07373786	-0.01239242	0.02532420	1.73904884	-0.00133272	-0.00022138	0.00041841	900	900	900	900
0.25602746 	19.32976532	-0.01233394	0.02532062	1.73911393	-0.00003350	-0.00070662	0.00010367	900	900	900	900
0.19335246 	19.52311778	-0.01230722	0.02535951	1.73915076	-0.00018620	0.00069828	-0.00118928	900	900	900	900
0.27301526 	19.79613304	-0.01232033	0.02535575	1.73922670	0.00026856	0.00053274	0.00032442	900	900	900	900
0.23323083 	20.02936387	-0.01233052	0.02534789	1.73928761	0.00019077	-0.00073582	-0.00000284	900	900	900	900
0.24938369 	20.27874756	-0.01229691	0.02539503	1.73936760	-0.00026392	0.00016331	-0.00001682	900	900	900	900
0.28085899 	20.55960655	-0.01231993	0.02545389	1.73942697	0.00117763	0.00294917	-0.00070197	900	900	900	900
0.27726245 	20.83686900	-0.01235406	0.02547057	1.73938680	0.00131220	-0.00017705	-0.00160582	900	900	900	900
0.24250960 	21.07937860	-0.01227310	0.02551965	1.73946953	0.00065939	0.00061623	-0.00091398	900	900	900	900
0.18880701 	21.26818562	-0.01227399	0.02552009	1.73952675	-0.00069494	0.00051425	0.00041882	900	900	900	900
0.24988341 	21.51806903	-0.01230393	0.02547447	1.73960018	-0.00037941	0.00038097	0.00023450	900	900	900	900
0.36207104 	21.88014007	-0.01229661	0.02545040	1.73971057	-0.00046012	-0.00147349	-0.00045524	900	900	900	900
0.14226580 	22.02240586	-0.01221058	0.02543591	1.73978782	0.00147928	0.00092567	-0.00083990	900	900	900	900
0.25727057 	22.27967644	-0.01218432	0.02549726	1.73970199	0.00164884	0.00258163	-0.00347483	900	900	900	900
0.23563838 	22.51531482	-0.01216199	0.02549822	1.73972940	0.00100296	0.00284305	-0.00360581	900	900	900	900
0.25155020 	22.76686502	-0.01216426	0.02535986	1.73988700	0.00091777	0.00373678	-0.00413543	900	900	900	900
0.26716423 	23.03402925	-0.01214888	0.02533999	1.73996532	-0.00095411	-0.00001108	-0.00110459	900	900	900	900
0.23517442 	23.26920366	-0.01211738	0.02527247	1.74008965	0.00005030	-0.00183530	0.00028187	900	900	900	900
0.25036025 	23.51956391	-0.01211609	0.02531607	1.74004531	-0.00025593	-0.00025395	0.00052605	900	900	900	900
0.24698615 	23.76655006	-0.01215147	0.02525289	1.74011159	-0.00003370	0.00008389	0.00023354	900	900	900	900
0.25262761 	24.01917768	-0.01210208	0.02525690	1.73992920	-0.00022062	-0.00163356	0.00076960	900	900	900	900
0.24725270 	24.26643038	-0.01202433	0.02525153	1.73966491	0.00143738	0.00118580	-0.00077530	900	900	900	900
0.25299621 	24.51942658	-0.01202160	0.02522332	1.73945189	-0.00026852	-0.00019961	-0.00044969	900	900	900	900
0.24729443 	24.76672101	-0.01196390	0.02516264	1.73942494	0.00024681	-0.00054449	-0.00062649	900	900	900	900
0.25010538 	25.01682639	-0.01198473	0.02512540	1.73945749	-0.00014511	-0.00052675	-0.00015729	900	900	900	900
0.25202394 	25.26885033	-0.01196530	0.02510628	1.73952782	-0.00018264	-0.00005152	-0.00052999	900	900	900	900
0.30083251 	25.56968284	-0.01197547	0.02507801	1.73954797	0.00018420	-0.00107694	0.00031461	900	900	900	900
0.32510662 	25.89478946	-0.01198631	0.02504121	1.73955822	0.00000624	-0.00032034	-0.00057287	900	900	900	900
0.25247598 	26.14726543	-0.01199688	0.02505496	1.73959410	0.00004710	0.00091853	-0.00027764	900	900	900	900
0.12406349 	26.27132893	-0.01201195	0.02501781	1.73959994	0.00000627	0.00002620	-0.00084851	900	900	900	900
0.27055478 	26.54188371	-0.01204686	0.02501311	1.73960674	0.00005082	-0.00034660	-0.00066149	900	900	900	900
0.32311821 	26.86500192	-0.01211026	0.02496276	1.73960876	0.00002242	-0.00025631	-0.00009610	900	900	900	900
0.21768403 	27.08268595	-0.01211882	0.02493318	1.73960555	0.00021102	0.00069947	-0.00144249	900	900	900	900
0.28671360 	27.36939955	-0.01213972	0.02502437	1.73964775	0.00076152	0.00203311	-0.00206449	900	900	900	900
0.14924049 	27.51864004	-0.01218934	0.02494886	1.73968959	-0.00022207	-0.00088116	-0.00048866	900	900	900	900
0.24674773 	27.76538777	-0.01224163	0.02494759	1.73974216	-0.00104308	-0.00191254	0.00165382	900	900	900	900
0.24984908 	28.01523685	-0.01221449	0.02496451	1.73966634	0.00002273	0.00122113	-0.00097485	900	900	900	900
0.25008297 	28.26531982	-0.01222087	0.02487597	1.73958015	0.00048249	0.00006700	-0.00069703	900	900	900	900
0.45141530 	28.71673512	-0.01222876	0.02487042	1.73946416	0.00021624	0.00108070	-0.00069679	900	900	900	900
0.14395952 	28.86069465	-0.01226636	0.02489094	1.73938453	-0.00031377	-0.00147856	0.00012430	900	900	900	900
0.37645745 	29.23715210	-0.01225595	0.02491010	1.73923433	0.00082271	0.00082717	-0.00022200	900	900	900	900
0.26387763 	29.50102973	-0.01227944	0.02492370	1.73909497	-0.00241136	0.00073391	-0.00151301	900	900	900	900
0.26338291 	29.76441264	-0.01230549	0.02492708	1.73901618	0.00078550	-0.00064889	0.00118640	900	900	900	900
0.09632969 	29.86074233	-0.01232993	0.02491644	1.73897624	-0.00247686	-0.00104165	-0.00012396	900	900	900	900
0.42123103 	30.28197336	-0.01233303	0.02492733	1.73891258	-0.00078790	-0.00115562	0.00067032	900	900	900	900
0.31713772 	30.59911108	-0.01229528	0.02492362	1.73871601	-0.00046538	-0.00090436	-0.00070037	900	900	900	900
0.23496842 	30.83407950	-0.01232406	0.02498375	1.73861587	-0.00021153	0.00080423	-0.00122871	900	900	900	900
0.03321362 	30.86729312	-0.01231995	0.02506044	1.73858511	0.00064627	0.00008590	-0.00294371	900	900	900	900
0.22100806 	31.08830118	-0.01235652	0.02504851	1.73868513	-0.00005204	-0.00015262	-0.00009516	900	900	900	900
0.18839860 	31.27669978	-0.01241293	0.02508231	1.73850584	-0.00021460	0.00049375	-0.00050088	900	900	900	900
0.39282370 	31.66952348	-0.01241283	0.02509610	1.73826623	0.00077114	0.00018121	-0.00095475	900	900	900	900
0.47361875 	32.14314222	-0.01245863	0.02516449	1.73809493	0.00042408	-0.00033080	-0.00030673	900	900	900	900
0.06104922 	32.20419145	-0.01246834	0.02528207	1.73793578	0.00101397	0.00205898	-0.00124131	900	900	900	900
0.05997944 	32.26417089	-0.01251262	0.02524114	1.73783588	-0.00071118	0.00129853	0.00026967	900	900	900	900
0.44994402 	32.71411490	-0.01245914	0.02523193	1.73758996	-0.00024447	-0.00177822	0.00074695	900	900	900	900
0.07299685 	32.78711176	-0.01243809	0.02528007	1.73740804	0.00027824	0.00156263	-0.00139437	900	900	900	900
0.24504066 	33.03215241	-0.01246377	0.02528071	1.73721111	-0.00018365	0.00061738	0.00141130	900	900	900	900
0.30217528 	33.33432770	-0.01248847	0.02534033	1.73698318	-0.00086663	-0.00005687	-0.00048501	900	900	900	900
0.19011140 	33.52443910	-0.01246619	0.02539322	1.73684204	-0.00035972	-0.00177693	0.00250534	900	900	900	900
0.24562430 	33.77006340	-0.01249947	0.02541275	1.73663366	0.00111340	-0.00066698	-0.00333465	900	900	900	900
0.24987507 	34.01993847	-0.01250354	0.02546754	1.73654819	0.00051410	-0.00004925	-0.00074044	900	900	900	900
0.34816217 	34.36810064	-0.01252606	0.02547414	1.73661351	-0.00076425	0.00042990	-0.00099361	900	900	900	900
0.38663101 	34.75473166	-0.01255156	0.02556642	1.73668623	0.00042884	0.00001111	-0.00168796	900	900	900	900
0.24585056 	35.00058222	-0.01255317	0.02562508	1.73680365	0.00004239	0.00005208	0.00052666	900	900	900	900
0.05895686 	35.05953908	-0.01255459	0.02568715	1.73689711	0.00005267	-0.00025115	0.00098384	900	900	900	900
0.29407454 	35.35361362	-0.01253748	0.02570979	1.73695862	-0.00095750	0.00053332	-0.00072887	900	900	900	900
0.37853813 	35.73215175	-0.01245607	0.02570459	1.73708856	0.00061106	-0.00007876	0.00071960	900	900	900	900
0.32863975 	36.06079149	-0.01241972	0.02571183	1.73718441	0.00142970	-0.00288105	0.00133417	900	900	900	900
0.30818701 	36.36897850	-0.01242148	0.02571433	1.73725259	0.00061838	-0.00324742	-0.00118053	900	900	900	900
0.37017775 	36.73915625	-0.01248647	0.02574680	1.73725259	0.00039347	-0.00165932	-0.00530965	900	900	900	900
0.43666983 	37.17582607	-0.01247844	0.02576393	1.73743629	0.00062894	-0.00063491	0.00137658	900	900	900	900
0.14286470 	37.31869078	-0.01247589	0.02578574	1.73744524	0.00131898	-0.00251395	0.00189973	900	900	900	900
0.22340393 	37.54209471	-0.01252309	0.02580347	1.73744822	-0.00045031	-0.00149512	-0.00191209	900	900	900	900
0.14880109 	37.69089580	-0.01247878	0.02586547	1.73737466	-0.00013774	-0.00051550	0.00059014	900	900	900	900
0.13845658 	37.82935238	-0.01249950	0.02584793	1.73716629	-0.00149824	0.00031087	0.00001615	900	900	900	900
0.18731022 	38.01666260	-0.01251550	0.02580917	1.73701966	0.00023889	-0.00129500	0.00128158	900	900	900	900
0.04103780 	38.05770040	-0.01254045	0.02580023	1.73680580	-0.00047790	-0.00241253	-0.00111719	900	900	900	900
0.36142421 	38.41912460	-0.01252241	0.02577043	1.73662162	-0.00039812	-0.00183436	-0.00028783	900	900	900	900
0.45305753 	38.87218213	-0.01258001	0.02576729	1.73650265	-0.00018960	0.00036760	0.00078705	900	900	900	900
0.42917037 	39.30135250	-0.01262211	0.02572794	1.73641992	-0.00027168	-0.00005200	0.00050937	900	900	900	900
0.09486485 	39.39621735	-0.01269046	0.02564913	1.73629999	-0.00083426	-0.00074399	-0.00030688	900	900	900	900
0.14462638 	39.54084373	-0.01273201	0.02557538	1.73631084	-0.00323077	-0.00052203	0.00469009	900	900	900	900
0.47973537 	40.02057910	-0.01268154	0.02561306	1.73613930	-0.00100001	-0.00081051	0.00166118	900	900	900	900
0.51435041 	40.53492951	-0.01270028	0.02559954	1.73607194	-0.00132897	0.00240652	-0.00555968	900	900	900	900
0.53385496 	41.06878448	-0.01267135	0.02555493	1.73610246	-0.00130660	0.00131582	0.00261639	900	900	900	900
0.39223456 	41.46101904	-0.01265665	0.02549685	1.73593187	-0.00190599	-0.00227053	0.00231885	900	900	900	900
0.44199419 	41.90301323	-0.01269357	0.02553169	1.73581910	0.00014159	-0.00015014	-0.00120010	900	900	900	900
0.29013228 	42.19314551	-0.01268767	0.02545141	1.73585272	-0.00011762	0.00080289	0.00000832	900	900	900	900
0.21474671 	42.40789223	-0.01271332	0.02545043	1.73579395	-0.00123918	0.00209932	-0.00077513	900	900	900	900
0.20429397 	42.61218619	-0.01268705	0.02546701	1.73570466	-0.00087233	0.00038381	0.00175228	900	900	900	900
0.21516538 	42.82735157	-0.01267387	0.02547209	1.73556864	0.00070827	0.00089592	-0.00163414	900	900	900	900
0.21511388 	43.04246545	-0.01267359	0.02546072	1.73557341	-0.00063770	0.00105430	-0.00024801	900	900	900	900
0.22514033 	43.26760578	-0.01260536	0.02543344	1.73551714	0.00004303	0.00093744	0.00122365	900	900	900	900
0.19939375 	43.46699953	-0.01259393	0.02544552	1.73541439	0.00070081	0.00014259	0.00101977	900	900	900	900
0.22558618 	43.69258571	-0.01260441	0.02551406	1.73546195	0.00105960	0.00026320	-0.00184373	900	900	900	900
0.22033143 	43.91291714	-0.01262117	0.02546032	1.73555791	-0.00080251	0.00127360	-0.00349680	900	900	900	900
0.21525812 	44.12817526	-0.01259260	0.02547486	1.73572135	-0.00201727	-0.00011153	0.00117750	900	900	900	900
0.21484399 	44.34301925	-0.01250956	0.02551384	1.73569214	-0.00005950	-0.00092749	0.00117273	900	900	900	900
0.21492624 	44.55794549	-0.01256141	0.02546721	1.73570132	-0.00001736	0.00022356	-0.00146357	900	900	900	900
0.22001338 	44.77795887	-0.01248587	0.02548355	1.73575342	-0.00001219	0.00022434	-0.00013696	900	900	900	900
0.22696471 	45.00492358	-0.01243682	0.02544922	1.73581517	0.00045722	-0.00023301	-0.00092500	900	900	900	900
0.21468735 	45.21961093	-0.01245482	0.02544829	1.73586488	0.00052829	-0.00001362	-0.00046282	900	900	900	900
0.22526813 	45.44487906	-0.01240851	0.02541130	1.73584151	-0.00005675	0.00000883	-0.00142084	900	900	900	900
0.19931507 	45.64419413	-0.01243389	0.02541277	1.73587716	-0.00040708	-0.00079631	0.00012092	900	900	900	900
0.20979881 	45.85399294	-0.01237916	0.02538579	1.73596597	0.00007665	-0.00050716	0.00025477	900	900	900	900
0.21509767 	46.06909060	-0.01235826	0.02534537	1.73604476	-0.00025202	0.00010244	-0.00033358	900	900	900	900
0.22533298 	46.29442358	-0.01231443	0.02533277	1.73607838	0.00071401	0.00023879	0.00138968	900	900	900	900
0.20427704 	46.49870062	-0.01232449	0.02534362	1.73607826	0.00030632	0.00025318	-0.00123706	900	900	900	900
0.23036194 	46.72906256	-0.01231124	0.02536032	1.73614347	0.00042195	0.00015465	-0.00000528	900	900	900	900
0.21506333 	46.94412589	-0.01229690	0.02532897	1.73620152	0.00041429	-0.00085382	0.00024084	900	900	900	900
0.23615313 	47.18027902	-0.01231389	0.02536862	1.73620355	-0.00097212	-0.00037942	-0.00152279	900	900	900	900
0.13294315 	47.31322217	-0.01228170	0.02544020	1.73626709	0.00080911	0.00317715	-0.00109477	900	900	900	900
0.04031944 	47.35354161	-0.01232953	0.02542135	1.73617172	0.00022324	0.00487289	-0.01011132	900	900	900	900
0.09643984 	47.44998145	-0.01231101	0.02534976	1.73636222	-0.00114732	0.00029861	0.00377722	900	900	900	900
0.10186052 	47.55184197	-0.01228961	0.02525146	1.73640668	0.00012721	-0.00122876	0.00122185	900	900	900	900
0.23121309 	47.78305507	-0.01230679	0.02526690	1.73654091	-0.00031621	-0.00031741	-0.00009991	900	900	900	900
0.32003593 	48.10309100	-0.01233402	0.02522035	1.73662174	-0.00049491	0.00035562	-0.00196778	900	900	900	900
0.20012832 	48.30321932	-0.01238803	0.02522908	1.73668420	-0.00053298	-0.00218381	0.00225455	900	900	900	900
0.22699761 	48.53021693	-0.01236477	0.02528306	1.73671770	0.00074148	0.00027508	-0.00173877	900	900	900	900
0.33110094 	48.86131787	-0.01237189	0.02526466	1.73681104	0.00130461	0.00078573	0.00060197	900	900	900	900
0.29572511 	49.15704298	-0.01235897	0.02525196	1.73692322	-0.00021137	-0.00123011	-0.00062848	900	900	900	900
0.22961998 	49.38666296	-0.01237301	0.02525767	1.73698688	-0.00045040	-0.00040305	-0.00068378	900	900	900	900
0.22992611 	49.61658907	-0.01233581	0.02525578	1.73707509	-0.00032599	0.00110773	0.00036250	900	900	900	900
0.28118205 	49.89777112	-0.01238978	0.02525641	1.73720264	-0.00005893	-0.00041265	0.00048014	900	900	900	900
0.26539207 	50.16316319	-0.01241242	0.02529063	1.73725307	-0.00116324	-0.00041316	0.00024409	900	900	900	900
0.23464918 	50.39781237	-0.01250739	0.02529352	1.73729169	-0.00035163	-0.00024250	0.00003934	900	900	900	900
0.28563094 	50.68344331	-0.01252072	0.02536921	1.73730791	-0.00010293	-0.00040930	0.00003437	900	900	900	900
0.26045036 	50.94389367	-0.01255119	0.02542843	1.73739648	0.00057663	0.00040780	-0.00050734	900	900	900	900
0.23994827 	51.18384194	-0.01260633	0.02540431	1.73749268	-0.00037350	0.00001599	0.00058306	900	900	900	900
0.22489762 	51.40873957	-0.01254700	0.02544722	1.73753858	-0.00026518	-0.00013249	-0.00045865	900	900	900	900
0.28587675 	51.69461632	-0.01252424	0.02546602	1.73761702	-0.00030502	0.00011721	0.00062772	900	900	900	900
0.23506355 	51.92967987	-0.01254916	0.02545606	1.73768055	0.00080060	-0.00225586	0.00137090	900	900	900	900
0.20423436 	52.13391423	-0.01252134	0.02549819	1.73768961	-0.00020591	-0.00334105	0.00003388	900	900	900	900
0.22953367 	52.36344790	-0.01252025	0.02557145	1.73773789	0.00030660	0.00001934	0.00055233	900	900	900	900
0.17864656 	52.54209447	-0.01248495	0.02562743	1.73772156	0.00037088	0.00171823	-0.00087611	900	900	900	900
0.23007822 	52.77217269	-0.01247102	0.02564263	1.73777127	0.00006145	0.00111454	-0.00161857	900	900	900	900
0.34619355 	53.11836624	-0.01246541	0.02566601	1.73785949	-0.00004746	-0.00175293	0.00010937	900	900	900	900
0.26001430 	53.37838054	-0.01243295	0.02574305	1.73793101	-0.00076478	0.00118890	-0.00062847	900	900	900	900
0.28600073 	53.66438127	-0.01244464	0.02571203	1.73801696	0.00082245	-0.00000158	0.00197674	900	900	900	900
0.26588726 	53.93026853	-0.01242955	0.02569308	1.73813009	0.00031802	0.00169270	-0.00050811	900	900	900	900
0.24490714 	54.17517567	-0.01242135	0.02565640	1.73823309	0.00027509	-0.00039046	-0.00037790	900	900	900	900
0.23484516 	54.41002083	-0.01244315	0.02561979	1.73825657	-0.00010693	0.00045629	-0.00107683	900	900	900	900
0.24032927 	54.65035009	-0.01242040	0.02560058	1.73836255	-0.00019171	0.00106672	0.00010557	900	900	900	900
0.30636787 	54.95671797	-0.01238887	0.02553967	1.73835278	-0.00027983	-0.00086706	0.00015347	900	900	900	900
0.23500943 	55.19172740	-0.01239676	0.02554882	1.73835075	-0.00054165	-0.00049525	-0.00098669	900	900	900	900
0.23970962 	55.43143702	-0.01239159	0.02555058	1.73841667	-0.00049318	0.00063940	-0.00029005	900	900	900	900
0.22494197 	55.65637898	-0.01240358	0.02547701	1.73850954	-0.00046461	0.00123586	0.00097309	900	900	900	900
0.25029826 	55.90667725	-0.01242800	0.02542583	1.73849094	0.00061617	-0.00240503	0.00019178	900	900	900	900
0.23976493 	56.14644217	-0.01242935	0.02545779	1.73853374	-0.00041839	0.00130589	-0.00428283	900	900	900	900
0.20425844 	56.35070062	-0.01244389	0.02540562	1.73860443	-0.00032049	-0.00019587	0.00356082	900	900	900	900
0.29132843 	56.64202905	-0.01240813	0.02537603	1.73855126	-0.00025060	-0.00107374	0.00109965	900	900	900	900
0.31185651 	56.95388556	-0.01242270	0.02535039	1.73871696	0.00057810	-0.00005427	-0.00152783	900	900	900	900
0.26570725 	57.21959281	-0.01235471	0.02533000	1.73868740	0.00044050	-0.00235507	0.00021804	900	900	900	900
0.20389128 	57.42348409	-0.01233702	0.02527271	1.73877370	0.00185295	0.00036458	-0.00261985	900	900	900	900
0.11722994 	57.54071403	-0.01238580	0.02523284	1.73893249	-0.00071248	0.00027544	0.00204133	900	900	900	900
0.25003433 	57.79074836	-0.01240348	0.02522206	1.73892927	-0.00108189	-0.00194174	0.00323547	900	900	900	900
0.24504781 	58.03579617	-0.01233997	0.02522481	1.73894107	-0.00014843	0.00005128	0.00195020	900	900	900	900
0.24048901 	58.27628517	-0.01231028	0.02520228	1.73893762	0.00172885	-0.00087908	0.00126372	900	900	900	900
0.26996970 	58.54625487	-0.01234913	0.02519104	1.73898709	-0.00068142	-0.00255909	0.00206624	900	900	900	900
0.31646323 	58.86271811	-0.01241466	0.02513479	1.73894429	0.00026696	-0.00453822	-0.00096561	900	900	900	900
0.20920420 	59.07192230	-0.01243610	0.02512985	1.73908460	-0.00036835	-0.00250056	-0.00056273	900	900	900	900
0.24465084 	59.31657314	-0.01243707	0.02515789	1.73905134	0.00028938	-0.00250487	0.00345225	900	900	900	900
0.21905041 	59.53562355	-0.01237633	0.02512802	1.73897803	0.00088734	-0.00127319	-0.00318634	900	900	900	900
0.29711270 	59.83273625	-0.01236541	0.02513444	1.73897398	-0.00047542	-0.00207340	0.00022484	900	900	900	900
0.24016404 	60.07290030	-0.01232472	0.02511505	1.73920023	-0.00112362	-0.00248741	0.00267016	900	900	900	900
0.26031327 	60.33321357	-0.01227171	0.02510952	1.73909843	0.00061392	-0.00163362	-0.00342214	900	900	900	900
0.26088285 	60.59409642	-0.01219892	0.02516484	1.73899806	0.00079941	0.00146917	-0.00388215	900	900	900	900
0.27575397 	60.86985040	-0.01218760	0.02527605	1.73867774	0.00657858	0.00294579	-0.02271928	900	900	900	900
0.26013350 	61.12998390	-0.01226894	0.02514120	1.73907721	-0.00336626	-0.00094564	0.00586391	900	900	900	900
0.20407772 	61.33406162	-0.01226552	0.02514393	1.73897946	-0.00171481	-0.00250908	-0.00092520	900	900	900	900
0.25570464 	61.58976626	-0.01232474	0.02520689	1.73913455	0.00079695	-0.00044755	-0.00603469	900	900	900	900
0.23500490 	61.82477117	-0.01235305	0.02517195	1.73940206	-0.00125094	0.00221704	0.00507708	900	900	900	900
0.23484182 	62.05961299	-0.01235168	0.02513050	1.73929644	-0.00018795	-0.00019837	0.00018551	900	900	900	900
0.28203964 	62.34165263	-0.01235992	0.02511718	1.73941445	-0.00148677	-0.00068101	0.00248726	900	900	900	900
0.23977375 	62.58142638	-0.01232978	0.02513228	1.73952138	0.00056245	-0.00099761	0.00329151	900	900	900	900
0.24520922 	62.82663560	-0.01229583	0.02510425	1.73959482	0.00159465	-0.00086821	0.00033762	900	900	900	900
0.23993802 	63.06657362	-0.01224933	0.02509053	1.73962462	0.00022164	0.00084091	-0.00330636	900	900	900	900
0.26005745 	63.32663107	-0.01223313	0.02514506	1.73980033	0.00015405	0.00094716	0.00180807	900	900	900	900
0.25812149 	63.58475256	-0.01226992	0.02513417	1.73976791	-0.00119656	0.00079502	-0.00242525	900	900	900	900
0.28085947 	63.86561203	-0.01221325	0.02507518	1.73997593	0.00040233	0.00019508	0.00043522	900	900	900	900
0.24033761 	64.10594964	-0.01220893	0.02504312	1.73998940	-0.00036156	-0.00034021	0.00026435	900	900	900	900
0.23530841 	64.34125805	-0.01219624	0.02507600	1.73995256	0.00039338	-0.00205957	0.00026532	900	900	900	900
0.24003983 	64.58129787	-0.01222352	0.02512440	1.73998117	0.00004416	-0.00036053	-0.00330765	900	900	900	900
0.20948291 	64.79078078	-0.01225626	0.02513222	1.74007297	0.00074452	0.00094902	-0.00035229	900	900	900	900
0.24458957 	65.03537035	-0.01220356	0.02513005	1.74011171	0.00015940	-0.00011381	0.00037203	900	900	900	900
0.29515648 	65.33052683	-0.01216775	0.02517871	1.74007952	0.00025772	-0.00060504	-0.00049431	900	900	900	900
0.18731570 	65.51784253	-0.01217949	0.02525363	1.74008405	0.00044967	0.00035583	-0.00368209	900	900	900	900
0.33278060 	65.85062313	-0.01221656	0.02519077	1.74023497	-0.00050605	-0.00058541	0.00196770	900	900	900	900
0.27908230 	66.12970543	-0.01223511	0.02515798	1.74017894	-0.00046021	-0.00192567	0.00061797	900	900	900	900
0.21548033 	66.34518576	-0.01224495	0.02521112	1.74017298	-0.00042520	-0.00086203	-0.00071855	900	900	900	900
0.20463920 	66.54982495	-0.01223022	0.02525249	1.74013221	0.00064764	0.00129666	-0.00099658	900	900	900	900
0.26691127 	66.81673622	-0.01225300	0.02530771	1.74018717	0.00025788	0.00052707	-0.00072772	900	900	900	900
0.25486064 	67.07159686	-0.01230413	0.02537942	1.74018145	-0.00128739	0.00078102	-0.00050601	900	900	900	900
0.26821589 	67.33981276	-0.01230344	0.02544249	1.74018657	0.00010030	-0.00175591	0.00128626	900	900	900	900
0.23128390 	67.57109666	-0.01228011	0.02542137	1.74019027	0.00113310	-0.00008470	-0.00173046	900	900	900	900
0.31420326 	67.88529992	-0.01225022	0.02539027	1.74026501	0.00052500	0.00014652	-0.00011470	900	900	900	900
0.35557461 	68.24087453	-0.01227318	0.02537504	1.74022329	0.00097555	0.00182404	-0.00071161	900	900	900	900
0.47672200 	68.71759653	-0.01231096	0.02539105	1.74022233	0.00009264	0.00202668	-0.00181300	900	900	900	900
0.46731997 	69.18491650	-0.01230293	0.02537929	1.74022579	0.00045600	0.00062828	0.00175376	900	900	900	900
0.26878452 	69.45370102	-0.01227506	0.02536980	1.74007833	0.00090630	0.00055983	-0.00263336	900	900	900	900
0.28201127 	69.73571229	-0.01220126	0.02540234	1.74001789	0.00070437	0.00175808	-0.00367922	900	900	900	900
0.02608037 	69.76179266	-0.01218322	0.02531545	1.73991287	0.00009684	-0.00344162	0.00032506	900	900	900	900
0.21752501 	69.97931767	-0.01220573	0.02532442	1.73986638	-0.00009813	-0.00028397	-0.00000860	900	900	900	900
0.23846817 	70.21778584	-0.01219999	0.02530066	1.73991179	-0.00020549	-0.00026692	0.00172147	900	900	900	900
0.20446563 	70.42225146	-0.01223108	0.02532727	1.73983729	-0.00067112	0.00064765	0.00092116	900	900	900	900
0.12812495 	70.55037642	-0.01228231	0.02531159	1.73979533	-0.00210092	0.00036622	-0.00195022	900	900	900	900
0.04661870 	70.59699512	-0.01224791	0.02532818	1.73986757	-0.00048357	-0.00031175	0.00145162	900	900	900	900
0.23067641 	70.82767153	-0.01226016	0.02537837	1.73982310	0.00038230	0.00092085	0.00071594	900	900	900	900
0.25008941 	71.07776093	-0.01221065	0.02532879	1.73976719	-0.00095746	-0.00031226	-0.00087011	900	900	900	900
0.22515225 	71.30291319	-0.01219943	0.02534819	1.73985016	-0.00088052	-0.00043622	0.00200320	900	900	900	900
0.35868645 	71.66159964	-0.01216127	0.02535224	1.73985350	-0.00057601	-0.00114204	0.00174872	900	900	900	900
0.28895617 	71.95055580	-0.01217777	0.02532700	1.73968875	0.00109593	-0.00046510	0.00126336	900	900	900	900
0.29611993 	72.24667573	-0.01225089	0.02532189	1.73966396	-0.00267990	0.00143853	-0.00124048	900	900	900	900
0.20576143 	72.45243716	-0.01218998	0.02530852	1.73975456	0.00037893	-0.00012307	0.00190551	900	900	900	900
0.13250661 	72.58494377	-0.01219324	0.02541055	1.73961866	-0.00657288	0.00114081	-0.01019234	900	900	900	900
0.26803899 	72.85298276	-0.01218743	0.02544257	1.73985541	-0.00020652	0.00101496	0.00261930	900	900	900	900
0.22123528 	73.07421803	-0.01212142	0.02534924	1.73979187	0.00003341	-0.00236621	0.00406348	900	900	900	900
0.24302578 	73.31724381	-0.01208136	0.02537117	1.73986316	0.00255858	-0.00193457	-0.00096391	900	900	900	900
0.19384217 	73.51108599	-0.01210802	0.02533495	1.73989964	0.00225691	-0.00143812	0.00189455	900	900	900	900
0.25685883 	73.76794481	-0.01213299	0.02531968	1.73987901	0.00036695	0.00026989	-0.00229160	900	900	900	900
0.27214217 	74.04008698	-0.01216043	0.02529465	1.73994362	0.00031576	0.00049237	0.00047925	900	900	900	900
0.24018049 	74.28026748	-0.01217811	0.02529348	1.73998725	-0.00055175	0.00224281	0.00163124	900	900	900	900
0.23059177 	74.51085925	-0.01219143	0.02525783	1.73991001	0.00116926	0.00042303	-0.00106042	900	900	900	900
0.36151624 	74.87237549	-0.01215092	0.02523591	1.73995996	0.00036596	-0.00085714	-0.00205969	900	900	900	900
0.14073205 	75.01310754	-0.01215146	0.02520763	1.74005198	0.00010623	-0.00119073	0.00065616	900	900	900	900
0.25430226 	75.26740980	-0.01217828	0.02523272	1.74005592	-0.00023092	-0.00048975	0.00160766	900	900	900	900
0.26528668 	75.53269649	-0.01223302	0.02520133	1.74003732	0.00034304	0.00009154	-0.00051599	900	900	900	900
0.31154561 	75.84424210	-0.01224556	0.02521638	1.74007440	0.00115483	0.00050381	-0.00218768	900	900	900	900
0.32665539 	76.17089748	-0.01223120	0.02521967	1.74013484	-0.00039413	-0.00064804	0.00073284	900	900	900	900
0.14117813 	76.31207561	-0.01219286	0.02524570	1.74012256	-0.00051990	-0.00018949	0.00077711	900	900	900	900
0.30451131 	76.61658692	-0.01221279	0.02528398	1.74011719	0.00000770	-0.00024393	-0.00019069	900	900	900	900
0.25777173 	76.87435865	-0.01225391	0.02523618	1.74019909	-0.00004500	-0.00080012	0.00050815	900	900	900	900
0.25611997 	77.13047862	-0.01224222	0.02525364	1.74020588	0.00029984	0.00024088	-0.00006888	900	900	900	900
0.33473921 	77.46521783	-0.01221474	0.02523716	1.74020839	0.00037759	-0.00122476	0.00186131	900	900	900	900
0.25557232 	77.72079015	-0.01225732	0.02522802	1.74011409	0.00012954	-0.00105725	-0.00362789	900	900	900	900
0.28614664 	78.00693679	-0.01227858	0.02523109	1.74027061	0.00041135	0.00037865	0.00040884	900	900	900	900
0.14818144 	78.15511823	-0.01226070	0.02526404	1.74028480	-0.00050533	-0.00065012	0.00118224	900	900	900	900
0.12181020 	78.27692842	-0.01222105	0.02530621	1.74031460	-0.00024816	0.00013437	-0.00081987	900	900	900	900
0.23189783 	78.50882626	-0.01223779	0.02535725	1.74035096	-0.00039388	-0.00009636	0.00056152	900	900	900	900
0.26476431 	78.77359056	-0.01229194	0.02534569	1.74033427	0.00010511	-0.00030452	-0.00035724	900	900	900	900
0.24897480 	79.02256536	-0.01228928	0.02538043	1.74033940	-0.00052967	0.00020203	0.00001275	900	900	900	900
0.27237797 	79.29494333	-0.01232583	0.02529670	1.74040675	-0.00037897	0.00021646	0.00037509	900	900	900	900
0.24231124 	79.53725457	-0.01235504	0.02532356	1.74042881	-0.00031627	-0.00030408	-0.00035889	900	900	900	900
0.27673578 	79.81399035	-0.01234911	0.02535558	1.74049604	-0.00016467	-0.00042914	-0.00026171	900	900	900	900
0.26679802 	80.08078837	-0.01231521	0.02533335	1.74049973	0.00049496	0.00011160	0.00067006	900	900	900	900
0.20878148 	80.28956985	-0.01232017	0.02531557	1.74052179	-0.00060175	-0.00118197	0.00115462	900	900	900	900
0.24656463 	80.53613448	-0.01228586	0.02533261	1.74053192	-0.00000351	-0.00020685	0.00079299	900	900	900	900
0.33007312 	80.86620760	-0.01236008	0.02528311	1.74058473	0.00003279	0.00099194	0.00020803	900	900	900	900
0.30138659 	81.16759419	-0.01236919	0.02522960	1.74065971	0.00099795	0.00062905	-0.00013822	900	900	900	900
0.29456139 	81.46215558	-0.01236813	0.02524435	1.74071515	0.00053083	0.00041190	-0.00045727	900	900	900	900
0.30160952 	81.76376510	-0.01241260	0.02520850	1.74077022	-0.00062343	-0.00072764	0.00103877	900	900	900	900
0.27088189 	82.03464699	-0.01237872	0.02517396	1.74081910	-0.00054547	-0.00116582	0.00102401	900	900	900	900
0.19954729 	82.23419428	-0.01237816	0.02519334	1.74089015	0.00007875	0.00081341	-0.00068084	900	900	900	900
0.22525573 	82.45945001	-0.01233660	0.02517545	1.74095500	0.00056370	0.00004300	0.00146437	900	900	900	900
0.24305344 	82.70250344	-0.01230089	0.02514771	1.74092484	0.00050136	0.00029056	-0.00044089	900	900	900	900
0.24529243 	82.94779587	-0.01230545	0.02518689	1.74101591	0.00030663	0.00079535	-0.00032633	900	900	900	900
0.25100970 	83.19880557	-0.01229199	0.02524546	1.74103308	-0.00005925	0.00075995	0.00074664	900	900	900	900
0.20521712 	83.40402269	-0.01229424	0.02528579	1.74101496	-0.00043944	-0.00020769	-0.00012506	900	900	900	900
0.22151566 	83.62553835	-0.01231706	0.02530448	1.74107742	-0.00062962	-0.00017785	-0.00105173	900	900	900	900
0.27380610 	83.89934444	-0.01228596	0.02531594	1.74112129	-0.00085621	-0.00090385	0.00036080	900	900	900	900
0.20399785 	84.10334229	-0.01227170	0.02537523	1.74115229	-0.00054918	-0.00078339	0.00064311	900	900	900	900
0.25207710 	84.35541940	-0.01225181	0.02536623	1.74110687	0.00054333	0.00067257	-0.00242285	900	900	900	900
0.24090743 	84.59632683	-0.01229434	0.02540304	1.74118817	0.00001938	0.00007510	-0.00016064	900	900	900	900
0.26476026 	84.86108708	-0.01234111	0.02536809	1.74130952	-0.00007206	-0.00029547	0.00089261	900	900	900	900
0.25978374 	85.12087083	-0.01236876	0.02538922	1.74137676	-0.00022475	-0.00081344	0.00021213	900	900	900	900
0.21546555 	85.33633637	-0.01243480	0.02540718	1.74139631	0.00058707	-0.00023004	0.00046578	900	900	900	900
0.25335288 	85.58968925	-0.01246146	0.02540442	1.74137557	0.00035162	0.00040074	-0.00112409	900	900	900	900
0.16753745 	85.75722671	-0.01246497	0.02538786	1.74144542	-0.00040219	0.00005119	-0.00039721	900	900	900	900
0.35337186 	86.11059856	-0.01243508	0.02541666	1.74144661	0.00014574	0.00080383	0.00049800	900	900	900	900
0.26108599 	86.37168455	-0.01241840	0.02540696	1.74149072	0.00052430	0.00022807	-0.00032391	900	900	900	900
0.22446418 	86.59614873	-0.01240576	0.02535563	1.74153852	0.00083521	0.00178140	-0.00128868	900	900	900	900
0.28837776 	86.88452649	-0.01239924	0.02530689	1.74155748	0.00074267	-0.00077388	-0.00051928	900	900	900	900
0.14769816 	87.03222466	-0.01229990	0.02530959	1.74157655	-0.00010572	0.00011883	-0.00090654	900	900	900	900
0.26221275 	87.29443741	-0.01228152	0.02531904	1.74158394	-0.00082052	0.00017438	0.00189859	900	900	900	900
0.22263288 	87.51707029	-0.01231473	0.02535765	1.74149871	-0.00901679	0.00435822	-0.00521248	900	900	900	900
0.25156307 	87.76863337	-0.01226402	0.02535733	1.74154210	-0.00084948	-0.00165150	0.00040374	900	900	900	900
0.30462980 	88.07326317	-0.01220662	0.02531285	1.74153364	0.00040079	-0.00398919	0.00134244	900	900	900	900
0.28195834 	88.35522151	-0.01216235	0.02539831	1.74148488	0.00051085	-0.00119467	-0.00258180	900	900	900	900
0.20545864 	88.56068015	-0.01215740	0.02537403	1.74161136	-0.00015416	0.00079094	-0.00000547	900	900	900	900
0.19668007 	88.75736022	-0.01218734	0.02534267	1.74167764	-0.00064778	0.00043390	0.00109449	900	900	900	900
0.25034571 	89.00770593	-0.01219741	0.02536521	1.74169278	-0.00089893	-0.00229373	0.00041279	900	900	900	900
0.24823499 	89.25594091	-0.01215101	0.02543341	1.74167895	-0.00065299	-0.00237755	-0.00024179	900	900	900	900
0.25001740 	89.50595832	-0.01210373	0.02549778	1.74177611	-0.00000291	0.00166606	-0.00108922	900	900	900	900
0.35579109 	89.86174941	-0.01208826	0.02539581	1.74194133	-0.00017904	-0.00203158	0.00537255	900	900	900	900
0.19010663 	90.05185604	-0.01209807	0.02548206	1.74185860	-0.00175870	-0.00199032	0.00246777	900	900	900	900
0.20991659 	90.26177263	-0.01206884	0.02563070	1.74192274	0.00075354	0.00100427	-0.00039157	900	900	900	900
0.39363551 	90.65540814	-0.01206188	0.02562352	1.74192452	0.00126184	0.00175727	-0.00344971	900	900	900	900
0.24870467 	90.90411282	-0.01207813	0.02559143	1.74199355	0.00043882	-0.00078009	-0.00057142	900	900	900	900
0.21038961 	91.11450243	-0.01202835	0.02558446	1.74197352	0.00093434	-0.00221072	0.00132092	900	900	900	900
0.30571413 	91.42021656	-0.01205324	0.02563903	1.74197507	0.00139138	0.00175912	-0.00166814	900	900	900	900
0.24180198 	91.66201854	-0.01203428	0.02564655	1.74206424	-0.00027510	0.00370191	0.00024575	900	900	900	900
0.24146008 	91.90347862	-0.01204822	0.02565713	1.74199879	-0.00094445	0.00110423	0.00153504	900	900	900	900
0.22965717 	92.13313580	-0.01210880	0.02564150	1.74184990	0.00009244	-0.00093905	-0.00426603	900	900	900	900
0.23706508 	92.37020087	-0.01209355	0.02552120	1.74201667	0.00145503	-0.00241469	-0.00257788	900	900	900	900
0.23088622 	92.60108709	-0.01212544	0.02542986	1.74205124	-0.00074363	-0.00317569	0.00111629	900	900	900	900
0.19134712 	92.79243422	-0.01207583	0.02543009	1.74205482	0.00091003	-0.00114041	0.00184811	900	900	900	900
0.31817842 	93.11061263	-0.01208968	0.02543616	1.74200523	0.00065614	-0.00089049	-0.00225291	900	900	900	900
0.23531675 	93.34592938	-0.01208734	0.02547974	1.74217570	-0.00127628	0.00280781	0.00208755	900	900	900	900
0.28141212 	93.62734151	-0.01209054	0.02543842	1.74220538	0.00122239	-0.00159498	0.00214993	900	900	900	900
0.32031083 	93.94765234	-0.01215420	0.02548182	1.74237096	-0.00110623	-0.00189529	-0.00054523	900	900	900	900
0.34164691 	94.28929925	-0.01213957	0.02547769	1.74241531	0.00030969	0.00100691	0.00400196	900	900	900	900
0.34258890 	94.63188815	-0.01210783	0.02548012	1.74235165	-0.00151538	-0.00202417	0.00066870	900	900	900	900
0.26296997 	94.89485812	-0.01215609	0.02552236	1.74241543	-0.00005747	-0.00109513	-0.00072014	900	900	900	900
0.32847285 	95.22333097	-0.01217728	0.02548811	1.74244606	0.00008355	0.00116385	-0.00301706	900	900	900	900
0.31538868 	95.53871965	-0.01220712	0.02543732	1.74250948	-0.00027377	0.00157964	0.00049331	900	900	900	900
0.25003052 	95.78875017	-0.01224517	0.02543788	1.74243999	-0.00117612	-0.00037066	0.00031816	900	900	900	900
0.30731988 	96.09607005	-0.01221204	0.02543678	1.74245298	0.00236530	-0.00161127	-0.00181077	900	900	900	900
0.24582505 	96.34189510	-0.01224792	0.02547423	1.74252975	-0.00349210	0.00175964	0.00022224	900	900	900	900
0.26529527 	96.60719037	-0.01229989	0.02540846	1.74248850	-0.00037940	0.00065646	-0.00323954	900	900	900	900
0.13787270 	96.74506307	-0.01237309	0.02540991	1.74255669	0.00034198	0.00104458	-0.00266578	900	900	900	900
0.25490761 	96.99997067	-0.01240447	0.02542916	1.74259830	-0.00053163	-0.00035204	0.00114854	900	900	900	900
0.00759339 	97.00756407	-0.01242260	0.02547037	1.74260950	-0.00157529	-0.00143609	0.00087259	900	900	900	900
0.06387639 	97.07144046	-0.01241945	0.02550996	1.74258184	-0.00099160	-0.00041463	0.00164625	900	900	900	900
0.21900511 	97.29044557	-0.01246606	0.02552589	1.74255812	-0.00016613	0.00034362	-0.00006421	900	900	900	900
0.27733779 	97.56778336	-0.01255399	0.02556075	1.74248362	-0.00163300	-0.00061870	0.00050056	900	900	900	900
0.29259396 	97.86037731	-0.01250896	0.02562171	1.74252486	-0.00142267	-0.00005563	0.00190548	900	900	900	900
0.23982835 	98.10020566	-0.01246215	0.02564909	1.74238503	-0.00024882	-0.00003494	0.00280831	900	900	900	900
0.16194463 	98.26215029	-0.01245925	0.02566074	1.74236643	0.00042906	0.00119545	-0.00447062	900	900	900	900
0.32012415 	98.58227444	-0.01244475	0.02563155	1.74241292	0.00172676	-0.00000170	0.00090524	900	900	900	900
0.23755670 	98.81983113	-0.01242917	0.02568384	1.74239218	-0.00084502	-0.00312639	-0.00048281	900	900	900	900
0.22841501 	99.04824615	-0.01246699	0.02574800	1.74240875	-0.00064974	0.00184228	-0.00292714	900	900	900	900
0.27178884 	99.32003498	-0.01239119	0.02568790	1.74252307	0.00126914	0.00057679	0.00061929	900	900	900	900
0.26730943 	99.58734441	-0.01246886	0.02564808	1.74258733	0.00089339	0.00161816	0.00041776	900	900	900	900
0.24255967 	99.82990408	-0.01253924	0.02566629	1.74255085	-0.00039121	-0.00072709	0.00070470	900	900	900	900
0.24830961 	100.07821369	-0.01255836	0.02567722	1.74257219	-0.00022554	-0.00061724	0.00035365	900	900	900	900
0.27209520 	100.35030890	-0.01256569	0.02570649	1.74265635	0.00006755	0.00036889	0.00004425	900	900	900	900
0.22224569 	100.57255459	-0.01254835	0.02568215	1.74263179	0.00037466	0.00072903	0.00054046	900	900	900	900
0.25689244 	100.82944703	-0.01247536	0.02564095	1.74262106	0.00035941	-0.00041763	0.00013799	900	900	900	900
0.23660445 	101.06605148	-0.01244005	0.02558908	1.74270201	0.00098435	-0.00136559	-0.00045062	900	900	900	900
0.19261742 	101.25866890	-0.01246851	0.02557473	1.74269176	0.00060327	-0.00063445	-0.00041469	900	900	900	900
0.28076291 	101.53943181	-0.01247336	0.02552959	1.74274552	0.00104044	-0.00148066	-0.00023838	900	900	900	900
0.22432613 	101.76375794	-0.01246317	0.02554012	1.74277723	-0.00046899	-0.00197012	0.00071846	900	900	900	900
0.34825063 	102.11200857	-0.01248703	0.02556493	1.74273884	-0.00172095	-0.00010799	-0.00072784	900	900	900	900
0.30064845 	102.41265702	-0.01244909	0.02559135	1.74281728	-0.00011136	0.00043189	0.00059996	900	900	900	900
0.31395674 	102.72661376	-0.01247203	0.02558299	1.74274707	0.00103342	-0.00024013	-0.00177790	900	900	900	900
0.07693315 	102.80354691	-0.01251496	0.02558263	1.74280417	-0.00030012	-0.00006486	0.00009923	900	900	900	900
0.28443670 	103.08798361	-0.01255672	0.02556984	1.74277234	-0.00036323	-0.00014906	0.00092800	900	900	900	900
0.24768949 	103.33567309	-0.01256239	0.02553541	1.74269140	-0.00469150	0.00102653	-0.00485545	900	900	900	900
0.22664237 	103.56231546	-0.01256991	0.02546492	1.74280715	-0.00146266	-0.00109481	0.00384743	900	900	900	900
0.22685909 	103.78917456	-0.01259025	0.02548507	1.74271607	0.00021104	-0.00030078	0.00023583	900	900	900	900
0.23473239 	104.02390695	-0.01258172	0.02548484	1.74273717	0.00070328	-0.00011125	0.00033288	900	900	900	900
0.25673175 	104.28063869	-0.01259513	0.02547604	1.74273336	0.00039370	-0.00057503	0.00160903	900	900	900	900
0.23559141 	104.51623011	-0.01255668	0.02545524	1.74266362	0.00211858	-0.00107329	0.00034063	900	900	900	900
0.31638360 	104.83261371	-0.01258723	0.02551432	1.74262202	-0.00065824	-0.00019639	-0.00164487	900	900	900	900
0.23868942 	105.07130313	-0.01262571	0.02545131	1.74265730	-0.00016466	-0.00040859	-0.00050954	900	900	900	900
0.21942234 	105.29072547	-0.01261908	0.02539560	1.74271393	0.00048792	-0.00155910	0.00067681	900	900	900	900
0.24193597 	105.53266144	-0.01262676	0.02542000	1.74267483	-0.00100112	-0.00117677	0.00053442	900	900	900	900
0.28553057 	105.81819201	-0.01260260	0.02539391	1.74265826	0.00036316	-0.00085051	0.00007203	900	900	900	900
0.20369172 	106.02188373	-0.01266427	0.02538616	1.74263108	-0.00016832	0.00060634	-0.00092434	900	900	900	900
0.30247211 	106.32435584	-0.01270652	0.02538344	1.74274206	-0.00058719	0.00241243	-0.00165378	900	900	900	900
0.25968385 	106.58403969	-0.01274628	0.02532291	1.74276102	-0.00031462	-0.00115841	0.00114559	900	900	900	900
0.21408439 	106.79812407	-0.01270574	0.02528913	1.74276495	0.00148211	-0.00152168	0.00125407	900	900	900	900
0.28627777 	107.08440185	-0.01271877	0.02531323	1.74269688	0.00013606	-0.00023798	-0.00243221	900	900	900	900
0.27575874 	107.36016059	-0.01270329	0.02529206	1.74271774	-0.00013641	-0.00039179	-0.00065705	900	900	900	900
0.26102805 	107.62118864	-0.01264840	0.02529682	1.74279261	0.00027583	-0.00077113	0.00139123	900	900	900	900
0.22037435 	107.84156299	-0.01263757	0.02525383	1.74291122	0.00153735	-0.00157249	0.00225028	900	900	900	900
0.25627756 	108.09784055	-0.01267658	0.02529653	1.74289989	0.00003589	-0.00140293	-0.00086249	900	900	900	900
0.29077673 	108.38861728	-0.01269484	0.02529275	1.74297512	0.00142296	-0.00116927	-0.00138478	900	900	900	900
0.22085071 	108.60946798	-0.01269429	0.02530356	1.74300122	0.00199122	0.00060792	0.00208792	900	900	900	900
0.32331061 	108.93277860	-0.01269805	0.02529783	1.74303591	-0.00096812	-0.00032142	0.00088484	900	900	900	900
0.28071785 	109.21349645	-0.01270005	0.02528384	1.74300849	0.00094222	-0.00083977	0.00003446	900	900	900	900
0.28153419 	109.49503064	-0.01268353	0.02529329	1.74313200	-0.00070195	-0.00037213	0.00095936	900	900	900	900
0.50169230 	109.99672294	-0.01268176	0.02534502	1.74313688	0.00042887	0.00081895	0.00033641	900	900	900	900
0.31893992 	110.31566286	-0.01264604	0.02534696	1.74313200	-0.00014840	-0.00068702	-0.00149056	900	900	900	900
0.22986960 	110.54553246	-0.01264070	0.02541041	1.74308920	0.00094843	0.00041771	-0.00112737	900	900	900	900
0.24015760 	110.78569007	-0.01259355	0.02542721	1.74301577	0.00006367	0.00034363	0.00107699	900	900	900	900
0.18595028 	110.97164035	-0.01257042	0.02544428	1.74296129	0.00002189	-0.00059680	0.00020108	900	900	900	900
0.00465560 	110.97629595	-0.01257323	0.02544333	1.74299645	-0.00005150	0.00016731	-0.00072757	900	900	900	900
0.08859682 	111.06489277	-0.01259582	0.02538957	1.74305391	-0.00054204	-0.00084237	0.00198208	900	900	900	900
0.29309177 	111.35798454	-0.01259216	0.02542065	1.74302077	-0.00140305	0.00081368	-0.00011900	900	900	900	900
0.31218243 	111.67016697	-0.01261836	0.02537859	1.74305296	-0.00106453	-0.00176273	0.00161579	900	900	900	900
0.37937880 	112.04954576	-0.01259484	0.02544811	1.74300659	0.00057093	-0.00305231	-0.00263095	900	900	900	900
0.24003768 	112.28958344	-0.01260486	0.02544205	1.74309647	0.00018204	-0.00028561	-0.00108094	900	900	900	900
0.26521063 	112.55479407	-0.01260642	0.02542758	1.74309886	-0.00058907	-0.00099491	-0.00005596	900	900	900	900
0.22509980 	112.77989388	-0.01261684	0.02539224	1.74311733	-0.00054143	-0.00111928	-0.00045743	900	900	900	900
0.29184222 	113.07173610	-0.01264145	0.02541894	1.74312270	-0.00137321	0.00011922	-0.00016863	900	900	900	900
0.10177231 	113.17350841	-0.01259230	0.02542736	1.74310791	-0.00047274	0.00148685	-0.00036899	900	900	900	900
0.22673893 	113.40024734	-0.01253075	0.02541351	1.74319327	-0.00036677	-0.00052298	0.00069676	900	900	900	900
0.28872919 	113.68897653	-0.01251758	0.02534856	1.74320638	0.00038295	-0.00078260	0.00106695	900	900	900	900
0.13804579 	113.82702231	-0.01246498	0.02533895	1.74316967	-0.00128935	-0.00216243	-0.00127398	900	900	900	900
0.28721452 	114.11423683	-0.01239429	0.02534069	1.74317741	0.00005728	-0.00093430	0.00021154	900	900	900	900
0.21988535 	114.33412218	-0.01235510	0.02533543	1.74306488	-0.00028341	0.00040460	0.00075738	900	900	900	900
0.25577688 	114.58989906	-0.01237431	0.02534669	1.74311149	0.00037010	0.00140308	0.00052906	900	900	900	900
0.25498343 	114.84488249	-0.01240098	0.02531932	1.74318421	0.00031762	-0.00005528	0.00348949	900	900	900	900
0.23609805 	115.08098054	-0.01243023	0.02535360	1.74303186	-0.00080414	-0.00015121	-0.00104529	900	900	900	900
0.23050284 	115.31148338	-0.01240928	0.02540614	1.74309766	-0.00001130	0.00250907	-0.00411548	900	900	900	900
0.25211906 	115.56360245	-0.01234388	0.02543792	1.74312150	0.00029882	0.00047593	0.00237243	900	900	900	900
0.21924019 	115.78284264	-0.01228109	0.02545968	1.74308741	0.00157396	-0.00131540	-0.00028891	900	900	900	900
0.25592113 	116.03876376	-0.01232206	0.02551605	1.74309456	-0.00012652	0.00019743	-0.00015567	900	900	900	900
0.25806975 	116.29683352	-0.01234854	0.02552115	1.74310184	-0.00043574	0.00120295	0.00014016	900	900	900	900
0.23042703 	116.52726054	-0.01233980	0.02553902	1.74310565	0.00140020	0.00262077	-0.00188258	900	900	900	900
0.27431107 	116.80157161	-0.01230496	0.02546985	1.74315023	0.00081401	0.00031280	0.00007989	900	900	900	900
0.23604012 	117.03761172	-0.01234754	0.02543240	1.74314892	-0.00015509	-0.00019486	-0.00084595	900	900	900	900
0.24472570 	117.28233743	-0.01238936	0.02540632	1.74314737	-0.00022281	-0.00088135	0.00094785	900	900	900	900
0.26507902 	117.54741645	-0.01240663	0.02542624	1.74315345	-0.00034050	-0.00000453	-0.00067313	900	900	900	900
0.23058486 	117.77800131	-0.01243312	0.02545067	1.74318957	-0.00170787	0.00089979	-0.00184799	900	900	900	900
0.30507493 	118.08307624	-0.01242780	0.02546089	1.74316609	-0.00159346	0.00001322	-0.00093680	900	900	900	900
0.18992162 	118.27299786	-0.01241982	0.02539286	1.74313760	0.00147319	-0.00107775	0.00048093	900	900	900	900
0.25745010 	118.53044796	-0.01246664	0.02540951	1.74318874	-0.00021149	0.00039030	0.00128317	900	900	900	900
0.24987555 	118.78032351	-0.01251834	0.02545210	1.74318814	0.00010101	-0.00005532	-0.00021493	900	900	900	900
0.30657840 	119.08690190	-0.01252002	0.02543692	1.74324846	-0.00020723	0.00040412	0.00127140	900	900	900	900
0.18811393 	119.27501583	-0.01255255	0.02547723	1.74319971	0.00005486	-0.00014029	0.00073459	900	900	900	900
0.26943922 	119.54445505	-0.01258644	0.02548176	1.74325800	-0.00006505	-0.00043835	-0.00113141	900	900	900	900
0.27061605 	119.81507111	-0.01261999	0.02548891	1.74329650	0.00064151	0.00027140	-0.00064551	900	900	900	900
0.24223733 	120.05730844	-0.01262647	0.02549420	1.74333990	0.00056787	0.00004330	0.00018252	900	900	900	900
0.25042081 	120.30772924	-0.01264894	0.02554069	1.74326897	-0.00193652	-0.00109863	0.00067019	900	900	900	900
0.28151011 	120.58923936	-0.01260889	0.02549049	1.74333143	0.00034120	-0.00330395	0.00191913	900	900	900	900
0.21497798 	120.80421734	-0.01268146	0.02552141	1.74338114	-0.00060705	0.00021308	0.00225184	900	900	900	900
0.29486346 	121.09908080	-0.01271287	0.02553356	1.74338734	-0.00037165	0.00016704	-0.00074422	900	900	900	900
0.29126310 	121.39034390	-0.01275781	0.02551766	1.74342740	-0.00096380	-0.00049233	0.00128450	900	900	900	900
0.27793455 	121.66827846	-0.01270221	0.02550930	1.74331987	-0.00036685	-0.00214002	0.00123553	900	900	900	900
0.27975392 	121.94803238	-0.01264378	0.02551959	1.74331844	-0.00099855	-0.00222356	0.00067144	900	900	900	900
0.06000042 	122.00803280	-0.01261678	0.02551630	1.74331486	0.00020030	-0.00138224	0.00195292	900	900	900	900
0.41650367 	122.42453647	-0.01262943	0.02543401	1.74329448	-0.00021562	0.00027642	0.00064519	900	900	900	900
0.12658000 	122.55111647	-0.01258100	0.02542035	1.74325573	0.00168006	0.00217990	-0.00067351	900	900	900	900
0.21701932 	122.76813579	-0.01257312	0.02537788	1.74319756	0.00041397	0.00087182	-0.00208024	900	900	900	900
0.31528807 	123.08342385	-0.01263708	0.02536379	1.74319923	-0.00053644	-0.00058799	0.00072889	900	900	900	900
0.20099044 	123.28441429	-0.01267489	0.02534524	1.74314094	-0.00120882	-0.00174624	0.00128045	900	900	900	900
0.33103466 	123.61544895	-0.01263164	0.02531095	1.74315655	-0.00058168	-0.00187324	-0.00073725	900	900	900	900
0.20301318 	123.81846213	-0.01261816	0.02527177	1.74309564	0.00026526	-0.00096174	0.00031216	900	900	900	900
0.26209569 	124.08055782	-0.01270536	0.02524982	1.74301875	-0.00056925	0.00012906	0.00007668	900	900	900	900
0.29417658 	124.37473440	-0.01267689	0.02523550	1.74300933	0.00028909	0.00070495	-0.00025875	900	900	900	900
0.43292308 	124.80765748	-0.01264652	0.02521456	1.74305284	0.00000019	0.00047543	-0.00067414	900	900	900	900
0.29654646 	125.10420394	-0.01266453	0.02525140	1.74308717	0.00015082	-0.00025136	0.00068024	900	900	900	900
0.19960546 	125.30380940	-0.01272179	0.02529116	1.74302673	-0.00113415	-0.00020276	-0.00001032	900	900	900	900
0.20450473 	125.50831413	-0.01274469	0.02528637	1.74310088	-0.00002896	-0.00084641	0.00145303	900	900	900	900
0.23836565 	125.74667978	-0.01269946	0.02530878	1.74307561	-0.00032934	-0.00064692	-0.00137740	900	900	900	900
0.09175944 	125.83843923	-0.01270907	0.02527646	1.74312341	-0.00034823	-0.00077521	0.00079501	900	900	900	900
0.19948077 	126.03792000	-0.01268437	0.02532595	1.74310887	-0.00001771	-0.00045594	0.00039437	900	900	900	900
0.22969437 	126.26761436	-0.01262587	0.02535701	1.74308550	0.00023234	0.00067479	-0.00019421	900	900	900	900
0.26043963 	126.52805400	-0.01260902	0.02531295	1.74312413	0.00048074	0.00103325	0.00012343	900	900	900	900
0.27532172 	126.80337572	-0.01257529	0.02531059	1.74316061	-0.00059525	-0.00062059	0.00114831	900	900	900	900
0.24136496 	127.04474068	-0.01253183	0.02528418	1.74309206	0.00065013	-0.00300302	-0.00065850	900	900	900	900
0.25485086 	127.29959154	-0.01252938	0.02534837	1.74312270	0.00049959	0.00059857	-0.00272551	900	900	900	900
0.22493386 	127.52452540	-0.01249725	0.02527047	1.74317837	0.00033312	-0.00054193	0.00192375	900	900	900	900
0.24766064 	127.77218604	-0.01249685	0.02525192	1.74318063	-0.00018674	-0.00196818	0.00043978	900	900	900	900
0.26625443 	128.03844047	-0.01244212	0.02530148	1.74315894	0.00044424	-0.00051772	-0.00231564	900	900	900	900
0.22843313 	128.26687360	-0.01241897	0.02528735	1.74322581	0.00025360	-0.00088521	0.00252597	900	900	900	900
0.25235128 	128.51922488	-0.01238652	0.02533581	1.74314725	0.00053855	-0.00010167	0.00007943	900	900	900	900
0.32883310 	128.84805799	-0.01239328	0.02536240	1.74320555	-0.00028047	-0.00005027	-0.00085327	900	900	900	900
0.19879270 	129.04685068	-0.01237958	0.02534265	1.74321795	-0.00029624	-0.00017099	-0.00027073	900	900	900	900
0.27548194 	129.32233262	-0.01241372	0.02534443	1.74323928	-0.00066033	0.00076110	0.00015534	900	900	900	900
0.26100159 	129.58333421	-0.01241960	0.02523873	1.74348724	0.00097962	0.00021462	0.00286248	900	900	900	900
0.25673246 	129.84006667	-0.01237917	0.02529401	1.74335885	0.00011084	-0.00379605	-0.00331022	900	900	900	900
0.25580025 	130.09586692	-0.01245723	0.02539968	1.74341333	-0.00030934	0.00367305	-0.00103267	900	900	900	900
0.32283902 	130.41870594	-0.01248246	0.02526587	1.74344134	-0.00055076	0.00001026	0.00223976	900	900	900	900
0.26519012 	130.68389606	-0.01243787	0.02533198	1.74339736	-0.00037920	-0.00071810	0.00023314	900	900	900	900
0.27093196 	130.95482802	-0.01244223	0.02538105	1.74346244	0.00066277	0.00173425	-0.00093009	900	900	900	900
0.27256227 	131.22739029	-0.01252111	0.02534584	1.74345696	-0.00068395	-0.00060899	0.00063828	900	900	900	900
0.32270122 	131.55009151	-0.01255704	0.02537821	1.74348748	-0.00078116	-0.00066568	-0.00037764	900	900	900	900
0.26575923 	131.81585073	-0.01255237	0.02534171	1.74349964	0.00098890	0.00035335	0.00050116	900	900	900	900
0.26089597 	132.07674670	-0.01254619	0.02528055	1.74353933	0.00079680	-0.00022664	-0.00013877	900	900	900	900
0.21966577 	132.29641247	-0.01252422	0.02529602	1.74357748	-0.00029247	-0.00052248	0.00014008	900	900	900	900
0.26096797 	132.55738044	-0.01252793	0.02528924	1.74356091	-0.00035693	0.00028012	0.00016640	900	900	900	900
0.10173988 	132.65912032	-0.01252434	0.02518480	1.74354553	0.00126891	-0.00041433	0.00040183	900	900	900	900
0.20011163 	132.85923195	-0.01250915	0.02518860	1.74359572	-0.00060977	-0.00056885	0.00090675	900	900	900	900
0.31793761 	133.17716956	-0.01249551	0.02518208	1.74361503	0.00010539	-0.00030689	-0.00112294	900	900	900	900
0.21178365 	133.38895321	-0.01247109	0.02514376	1.74360907	0.00065499	0.00053347	-0.00018032	900	900	900	900
0.31019139 	133.69914460	-0.01247631	0.02505601	1.74352515	0.00088787	0.00046080	-0.00050586	900	900	900	900
0.24784064 	133.94698524	-0.01248945	0.02505281	1.74349225	0.00068636	-0.00028272	0.00078869	900	900	900	900
0.20958972 	134.15657496	-0.01247020	0.02500851	1.74343824	0.00060863	0.00074022	-0.00073486	900	900	900	900
0.27874875 	134.43532372	-0.01252087	0.02494295	1.74348056	-0.00126084	-0.00098111	0.00014947	900	900	900	900
0.38304925 	134.81837296	-0.01250526	0.02495182	1.74344361	-0.00190970	-0.00238188	0.00190249	900	900	900	900
0.39890504 	135.21727800	-0.01254604	0.02493092	1.74343967	0.00022371	0.00028604	-0.00116516	900	900	900	900
0.09042811 	135.30770612	-0.01256917	0.02487660	1.74339831	-0.00018490	-0.00148368	0.00141955	900	900	900	900
0.01210475 	135.31981087	-0.01260596	0.02487480	1.74323297	0.00032068	-0.00009174	-0.00093401	900	900	900	900
0.31555057 	135.63536143	-0.01260722	0.02487331	1.74320114	0.00051751	-0.00086124	0.00161333	900	900	900	900
0.39810753 	136.03346896	-0.01261550	0.02490818	1.74306428	0.00037021	0.00034389	-0.00088446	900	900	900	900
0.36065435 	136.39412332	-0.01262704	0.02491717	1.74301445	-0.00027465	-0.00016150	-0.00068241	900	900	900	900
0.21177626 	136.60589957	-0.01267673	0.02493478	1.74293792	-0.00007310	-0.00000740	-0.00060191	900	900	900	900
0.22606301 	136.83196259	-0.01270497	0.02495798	1.74286962	0.00080612	0.00060497	0.00007127	900	900	900	900
0.28521729 	137.11717987	-0.01281085	0.02499038	1.74286437	-0.00027518	0.00007466	0.00027607	900	900	900	900
0.21490383 	137.33208370	-0.01284034	0.02503864	1.74288595	0.00030395	0.00045920	0.00002881	900	900	900	900
0.22050667 	137.55259037	-0.01284102	0.02509806	1.74283838	0.00015757	0.00078973	0.00075088	900	900	900	900
