deltaTime(s)	Time(s)	Roll(rad)	Pitch(rad)	Yaw(rad)	RollSpeed(rad/s)	PitchSpeed(rad/s)	YawSpeed(rad/s)	Motor1(PWM)	Motor2(PWM)	Motor3(PWM)	Motor4(PWM)	
0.11163616 	0.11163616	-0.01004813	0.00543521	1.04332280	0.00007415	-0.00265084	-0.00062035	900	900	900	900
0.24894118 	0.36057734	-0.01006866	0.00547439	1.04337263	0.00082681	-0.00020537	0.00155140	900	900	900	900
0.25973368 	0.62031102	-0.01006018	0.00550040	1.04333472	0.00026591	0.00095583	0.00144189	900	900	900	900
0.26328850 	0.88359952	-0.01005041	0.00557628	1.04326725	0.00009712	-0.00056894	0.00108450	900	900	900	900
0.23878241 	1.12238193	-0.01003779	0.00562895	1.04320681	-0.00101030	-0.00111031	0.00127529	900	900	900	900
0.24549556 	1.36787748	-0.00999705	0.00562732	1.04316092	-0.00040423	-0.00086976	0.00023424	900	900	900	900
0.25404811 	1.62192559	-0.00999402	0.00567466	1.04310429	0.00048222	0.00072244	0.00148445	900	900	900	900
0.24402761 	1.86595321	-0.01002386	0.00568338	1.04304612	-0.00019198	-0.00059393	0.00105269	900	900	900	900
0.28409362 	2.15004683	-0.01002717	0.00566732	1.04301369	0.00034575	-0.00118062	0.00030479	900	900	900	900
0.27510428 	2.42515111	-0.01005303	0.00568117	1.04292321	-0.00104186	-0.00125717	-0.00202263	900	900	900	900
0.22248721 	2.64763832	-0.01005583	0.00566398	1.04296863	-0.00133914	-0.00137907	0.00175475	900	900	900	900
0.26002097 	2.90765929	-0.01001732	0.00570635	1.04289484	0.00193782	-0.00082889	0.00071213	900	900	900	900
0.26592779 	3.17358708	-0.01006777	0.00569264	1.04291213	-0.00098946	-0.00036156	0.00194902	900	900	900	900
0.23437285 	3.40795994	-0.01011946	0.00567191	1.04285228	0.00124058	-0.00050631	0.00067957	900	900	900	900
0.27885675 	3.68681669	-0.01011254	0.00567556	1.04284227	0.00058898	-0.00091349	0.00150805	900	900	900	900
0.23462868 	3.92144537	-0.01012860	0.00562521	1.04280603	0.00052588	-0.00254461	0.00155643	900	900	900	900
0.25162601 	4.17307138	-0.01011587	0.00562016	1.04289138	0.00032724	-0.00052514	0.00112734	900	900	900	900
0.24495387 	4.41802526	-0.01010768	0.00554747	1.04295683	-0.00003981	0.00121517	0.00168731	900	900	900	900
0.23975277 	4.65777802	-0.01011374	0.00553060	1.04297030	-0.00016542	-0.00051986	0.00093020	900	900	900	900
0.25481129 	4.91258931	-0.01011841	0.00548394	1.04295707	0.00017624	-0.00263101	-0.00019498	900	900	900	900
0.29646373 	5.20905304	-0.01011953	0.00547240	1.04304159	-0.00045339	-0.00176436	0.00075395	900	900	900	900
0.18906808 	5.39812112	-0.01008781	0.00539196	1.04305398	-0.00008222	-0.00035594	0.00086818	900	900	900	900
0.25450349 	5.65262461	-0.01013767	0.00533124	1.04299521	-0.00011101	-0.00017354	0.00012482	900	900	900	900
0.28533220 	5.93795681	-0.01018225	0.00527976	1.04304016	0.00027854	-0.00129833	0.00081958	900	900	900	900
0.26513481 	6.20309162	-0.01020282	0.00524976	1.04310000	0.00026884	-0.00138001	0.00102930	900	900	900	900
0.22966599 	6.43275762	-0.01015535	0.00523407	1.04312336	-0.00044961	-0.00044921	0.00110672	900	900	900	900
0.26634145 	6.69909906	-0.01019717	0.00520389	1.04318726	-0.00072446	-0.00083270	0.00090514	900	900	900	900
0.23965335 	6.93875241	-0.01023193	0.00516461	1.04321504	-0.00006504	-0.00110010	0.00062011	900	900	900	900
0.17903399 	7.11778641	-0.01022814	0.00513872	1.04324925	0.00033713	-0.00074749	0.00051840	900	900	900	900
0.24363399 	7.36142039	-0.01022646	0.00510927	1.04328644	0.00046625	-0.00252385	0.00006915	900	900	900	900
0.24619913 	7.60761952	-0.01022365	0.00507849	1.04331625	0.00005044	-0.00082951	0.00115603	900	900	900	900
0.26034474 	7.86796427	-0.01020031	0.00500234	1.04336894	0.00022763	-0.00113516	0.00143042	900	900	900	900
0.25964451 	8.12760878	-0.01020662	0.00492084	1.04338813	-0.00044499	-0.00122375	0.00126420	900	900	900	900
0.23245668 	8.36006546	-0.01018457	0.00484570	1.04339111	0.00015117	-0.00052794	0.00118534	900	900	900	900
0.25195146 	8.61201692	-0.01019977	0.00482166	1.04338562	-0.00016549	-0.00068563	0.00081127	900	900	900	900
0.25297308 	8.86499000	-0.01010510	0.00472910	1.04341805	0.00034429	-0.00171447	0.00144534	900	900	900	900
0.25566530 	9.12065530	-0.01005182	0.00465829	1.04347181	0.00037092	-0.00098301	0.00098861	900	900	900	900
0.23363233 	9.35428762	-0.01004792	0.00461855	1.04353094	0.00046482	-0.00148344	0.00075761	900	900	900	900
0.25329781 	9.60758543	-0.01007691	0.00463655	1.04358530	0.00003632	-0.00085040	0.00087845	900	900	900	900
0.26927710 	9.87686253	-0.01006798	0.00466817	1.04364228	-0.00008939	-0.00118313	0.00149221	900	900	900	900
0.24063134 	10.11749387	-0.01007298	0.00465224	1.04368460	-0.00069743	-0.00035649	0.00149815	900	900	900	900
0.25521564 	10.37270951	-0.01006182	0.00466327	1.04376519	-0.00043304	-0.00083302	0.00054625	900	900	900	900
0.23415160 	10.60686111	-0.01009034	0.00466732	1.04385519	-0.00115925	-0.00088509	0.00091666	900	900	900	900
0.25600362 	10.86286473	-0.01012233	0.00467086	1.04388082	-0.00018587	-0.00148030	0.00080202	900	900	900	900
0.25965023 	11.12251496	-0.01011302	0.00470656	1.04392684	0.00014337	-0.00137512	0.00053726	900	900	900	900
0.25756025 	11.38007522	-0.01020096	0.00469387	1.04396331	-0.00049811	-0.00096062	0.00038909	900	900	900	900
0.22960925 	11.60968447	-0.01016038	0.00469612	1.04396486	-0.00034321	-0.00127378	0.00031154	900	900	900	900
0.25518274 	11.86486721	-0.01009845	0.00466500	1.04396677	-0.00005059	-0.00200161	0.00146592	900	900	900	900
0.23582959 	12.10069680	-0.01012189	0.00465726	1.04402101	-0.00113977	-0.00153885	0.00135850	900	900	900	900
0.26573205 	12.36642885	-0.01016105	0.00469387	1.04407299	0.00047263	-0.00004515	0.00097433	900	900	900	900
0.25017285 	12.61660171	-0.01014277	0.00464725	1.04411900	0.00019238	-0.00083072	0.00032234	900	900	900	900
0.25410175 	12.87070346	-0.01020558	0.00465938	1.04410720	-0.00067557	-0.00082806	0.00101428	900	900	900	900
0.24132729 	13.11203074	-0.01020247	0.00471019	1.04407835	-0.00017519	-0.00059137	0.00102671	900	900	900	900
0.24430108 	13.35633183	-0.01023900	0.00470718	1.04404461	0.00064416	-0.00142343	0.00067123	900	900	900	900
0.25453305 	13.61086488	-0.01017587	0.00472307	1.04410100	0.00082359	-0.00022805	0.00109622	900	900	900	900
0.24139476 	13.85225964	-0.01021946	0.00475690	1.04414260	0.00030779	-0.00028744	0.00204905	900	900	900	900
0.25702882 	14.10928845	-0.01025667	0.00476663	1.04413223	0.00025031	-0.00230238	0.00073314	900	900	900	900
0.24701548 	14.35630393	-0.01023793	0.00479833	1.04416025	-0.00053975	-0.00156209	0.00097135	900	900	900	900
0.24531674 	14.60162067	-0.01021962	0.00477391	1.04410613	-0.00044507	-0.00092295	0.00005165	900	900	900	900
0.25538468 	14.85700536	-0.01022068	0.00477375	1.04413283	-0.00041426	-0.00278673	0.00105978	900	900	900	900
0.24714804 	15.10415339	-0.01020948	0.00490956	1.04413986	0.00082124	0.00046092	0.00091966	900	900	900	900
0.25335288 	15.35750628	-0.01025701	0.00491254	1.04421866	-0.00085665	0.00050443	0.00135208	900	900	900	900
0.25444865 	15.61195493	-0.01023883	0.00492948	1.04421782	-0.00083553	-0.00019551	0.00122007	900	900	900	900
0.25471044 	15.86666536	-0.01022577	0.00495746	1.04421306	0.00049543	-0.00085429	0.00109254	900	900	900	900
0.30093074 	16.16759610	-0.01027925	0.00499654	1.04421401	-0.00030714	0.00186870	0.00085300	900	900	900	900
0.18960857 	16.35720468	-0.01029655	0.00504458	1.04424429	0.00036497	-0.00036332	0.00126715	900	900	900	900
0.26342630 	16.62063098	-0.01033818	0.00508639	1.04426789	0.00056294	-0.00230718	0.00048361	900	900	900	900
0.23627329 	16.85690427	-0.01028755	0.00512802	1.04423380	-0.00043986	-0.00165324	-0.00008853	900	900	900	900
0.26481438 	17.12171865	-0.01028674	0.00514844	1.04427433	-0.00081075	-0.00150332	0.00121706	900	900	900	900
0.24869585 	17.37041450	-0.01034900	0.00520164	1.04423833	-0.00095430	0.00080614	0.00114564	900	900	900	900
0.30821943 	17.67863393	-0.01037419	0.00517520	1.04425812	0.00014158	-0.00004019	0.00074897	900	900	900	900
0.17721319 	17.85584712	-0.01033853	0.00520800	1.04423833	-0.00002602	-0.00144258	0.00043323	900	900	900	900
0.25097775 	18.10682487	-0.01031106	0.00523330	1.04430854	-0.00040783	-0.00070899	0.00112180	900	900	900	900
0.25183487 	18.35865974	-0.01028808	0.00529566	1.04431367	0.00085391	0.00004254	0.00078794	900	900	900	900
0.27744198 	18.63610172	-0.01031065	0.00529739	1.04433584	-0.00064217	0.00108116	0.00124328	900	900	900	900
0.21809769 	18.85419941	-0.01026546	0.00525523	1.04434943	0.00036371	-0.00298061	0.00052439	900	900	900	900
0.24767041 	19.10186982	-0.01025649	0.00529371	1.04435074	-0.00003479	-0.00171113	0.00012376	900	900	900	900
0.25718522 	19.35905504	-0.01025736	0.00538956	1.04438531	-0.00142362	-0.00111800	0.00125574	900	900	900	900
0.25649476 	19.61554980	-0.01023233	0.00536952	1.04437375	0.00119760	0.00160159	0.00103543	900	900	900	900
0.24559259 	19.86114240	-0.01026890	0.00536975	1.04441476	-0.00000617	0.00024029	0.00101319	900	900	900	900
0.26076436 	20.12190676	-0.01028064	0.00536578	1.04444945	-0.00004047	-0.00089556	0.00124028	900	900	900	900
0.25602460 	20.37793136	-0.01031400	0.00537153	1.04448605	0.00002224	-0.00156958	0.00139658	900	900	900	900
0.23846364 	20.61639500	-0.01036220	0.00534945	1.04450953	0.00068567	-0.00052575	0.00150428	900	900	900	900
0.25426936 	20.87066436	-0.01036913	0.00536857	1.04456389	0.00069661	-0.00065033	0.00091853	900	900	900	900
0.23971581 	21.11038017	-0.01037497	0.00543228	1.04462230	-0.00123615	0.00034274	0.00166356	900	900	900	900
0.29580903 	21.40618920	-0.01038199	0.00545186	1.04469609	-0.00038459	-0.00083224	0.00058199	900	900	900	900
0.19572973 	21.60191894	-0.01038459	0.00545564	1.04477131	0.00140723	0.00001999	0.00117197	900	900	900	900
0.25422812 	21.85614705	-0.01040583	0.00554427	1.04478550	0.00012466	-0.00039582	0.00139436	900	900	900	900
0.25551867 	22.11166573	-0.01042634	0.00554773	1.04484975	0.00038439	-0.00083034	0.00088645	900	900	900	900
0.24477005 	22.35643578	-0.01041488	0.00559048	1.04490173	-0.00023351	0.00017028	0.00164608	900	900	900	900
0.25862050 	22.61505628	-0.01038138	0.00556662	1.04501891	0.00028443	-0.00081195	0.00081023	900	900	900	900
0.25125647 	22.86631274	-0.01039741	0.00559666	1.04507244	-0.00058412	-0.00085380	0.00119978	900	900	900	900
0.23464751 	23.10096025	-0.01046800	0.00559256	1.04512024	-0.00077572	-0.00200882	0.00077887	900	900	900	900
0.25909472 	23.36005497	-0.01048321	0.00554520	1.04512906	0.00082011	-0.00106272	0.00025649	900	900	900	900
0.24541402 	23.60546899	-0.01050298	0.00556879	1.04518116	-0.00038029	-0.00022163	0.00121373	900	900	900	900
0.28013945 	23.88560843	-0.01054965	0.00557327	1.04521430	-0.00054998	-0.00025450	0.00062472	900	900	900	900
0.23303127 	24.11863971	-0.01060062	0.00551230	1.04530180	-0.00132849	-0.00132236	0.00014224	900	900	900	900
0.26250052 	24.38114023	-0.01057885	0.00549428	1.04540133	0.00136231	-0.00074795	0.00150729	900	900	900	900
0.22805333 	24.60919356	-0.01057296	0.00544604	1.04546511	-0.00015399	-0.00026461	0.00145445	900	900	900	900
0.26614904 	24.87534261	-0.01057531	0.00543135	1.04553258	0.00030188	0.00024614	0.00206844	900	900	900	900
0.24053741 	25.11588001	-0.01061123	0.00532882	1.04555786	-0.00017747	-0.00183664	0.00038322	900	900	900	900
0.25766253 	25.37354255	-0.01063126	0.00532484	1.04559374	0.00053109	-0.00092969	-0.00053020	900	900	900	900
0.23261142 	25.60615396	-0.01063845	0.00525744	1.04572260	-0.00102997	0.00018927	0.00085505	900	900	900	900
0.25027013 	25.85642409	-0.01063251	0.00513369	1.04578483	-0.00071101	-0.00199314	0.00041128	900	900	900	900
0.25361943 	26.11004353	-0.01062965	0.00513368	1.04588294	0.00067202	-0.00184903	0.00214437	900	900	900	900
0.26012111 	26.37016463	-0.01069457	0.00515256	1.04598677	-0.00301643	0.00100035	0.00185854	900	900	900	900
0.25053477 	26.62069941	-0.01069846	0.00506761	1.04606056	0.00027719	-0.00114786	0.00213351	900	900	900	900
0.25437403 	26.87507343	-0.01066358	0.00500429	1.04611206	-0.00076032	-0.00121759	0.00047541	900	900	900	900
0.23983550 	27.11490893	-0.01060969	0.00493109	1.04621792	0.00068612	-0.00161968	0.00101223	900	900	900	900
0.27415228 	27.38906121	-0.01065704	0.00492912	1.04631341	0.00014586	0.00077009	0.00193709	900	900	900	900
0.22659111 	27.61565232	-0.01061306	0.00488732	1.04638100	-0.00120146	0.00021608	0.00111654	900	900	900	900
0.24993706 	27.86558938	-0.01061536	0.00490684	1.04643619	-0.00251508	0.00041846	0.00064392	900	900	900	900
0.23838687 	28.10397625	-0.01070800	0.00485586	1.04647672	-0.00169426	-0.00150909	0.00104751	900	900	900	900
0.26139235 	28.36536860	-0.01062982	0.00481267	1.04652965	0.00015878	-0.00368487	0.00024190	900	900	900	900
0.23785090 	28.60321951	-0.01063838	0.00484475	1.04652262	-0.00076935	-0.00353563	-0.00023414	900	900	900	900
0.26271844 	28.86593795	-0.01065342	0.00484933	1.04662859	-0.00093172	0.00154820	0.00286306	900	900	900	900
0.24447179 	29.11040974	-0.01057488	0.00479164	1.04664505	-0.00036569	0.00132612	0.00089730	900	900	900	900
0.25584841 	29.36625814	-0.01054598	0.00474280	1.04672158	0.00117530	-0.00287757	0.00084805	900	900	900	900
0.29536700 	29.66162515	-0.01056847	0.00478244	1.04681468	-0.00019799	-0.00231495	-0.00009064	900	900	900	900
0.20785928 	29.86948442	-0.01054952	0.00486467	1.04689240	-0.00009863	-0.00010186	0.00120111	900	900	900	900
0.26053739 	30.13002181	-0.01050119	0.00474135	1.04691648	-0.00066141	0.00043047	0.00119683	900	900	900	900
0.22869277 	30.35871458	-0.01048074	0.00463237	1.04696751	0.00007616	-0.00322788	0.00054761	900	900	900	900
0.27475286 	30.63346744	-0.01046521	0.00472190	1.04707599	0.00062696	-0.00430896	0.00069276	900	900	900	900
0.24270630 	30.87617373	-0.01037465	0.00479367	1.04714465	0.00048193	-0.00070651	0.00122994	900	900	900	900
0.29595065 	31.17212439	-0.01037245	0.00468263	1.04714465	-0.00166286	-0.00120451	-0.00006931	900	900	900	900
0.29056621 	31.46269059	-0.01032151	0.00470058	1.04723108	0.00002888	-0.00231050	0.00089054	900	900	900	900
0.29607511 	31.75876570	-0.01035231	0.00483027	1.04732060	-0.00063214	-0.00087701	0.00038901	900	900	900	900
0.27996993 	32.03873563	-0.01031910	0.00485871	1.04744327	-0.00041522	0.00057712	0.00231793	900	900	900	900
0.26604891 	32.30478454	-0.01034585	0.00479255	1.04748273	-0.00076643	-0.00127079	0.00079997	900	900	900	900
0.24980044 	32.55458498	-0.01036113	0.00478313	1.04761994	-0.00020891	-0.00184259	0.00222578	900	900	900	900
0.31154037 	32.86612535	-0.01039383	0.00477165	1.04775631	-0.00089778	-0.00084229	0.00118182	900	900	900	900
0.22963166 	33.09575701	-0.01037275	0.00478290	1.04779088	-0.00005494	-0.00151555	0.00162596	900	900	900	900
0.21929669 	33.31505370	-0.01029877	0.00483117	1.04790521	0.00032019	-0.00060612	0.00084733	900	900	900	900
0.27530074 	33.59035444	-0.01030317	0.00482616	1.04796827	0.00014622	-0.00017446	0.00083041	900	900	900	900
0.31169510 	33.90204954	-0.01023379	0.00478477	1.04805017	0.00043073	-0.00112207	0.00082409	900	900	900	900
0.22421861 	34.12626815	-0.01021205	0.00480076	1.04806006	0.00018347	-0.00199724	-0.00068925	900	900	900	900
0.32131386 	34.44758201	-0.01018219	0.00485893	1.04821110	-0.00078296	0.00043141	0.00244354	900	900	900	900
0.20916057 	34.65674257	-0.01015630	0.00489576	1.04825020	0.00099793	-0.00015659	0.00214990	900	900	900	900
0.28061366 	34.93735623	-0.01020110	0.00499008	1.04828060	0.00109792	0.00270220	0.00179637	900	900	900	900
0.19919968 	35.13655591	-0.01019931	0.00500637	1.04835820	-0.00035016	0.00159868	0.00164901	900	900	900	900
0.20940971 	35.34596562	-0.01015683	0.00497149	1.04840267	-0.00034243	-0.00119643	0.00144355	900	900	900	900
0.26498055 	35.61094618	-0.01014127	0.00496561	1.04843104	0.00257431	-0.00316777	0.00183923	900	900	900	900
0.30217409 	35.91312027	-0.01016764	0.00505063	1.04850280	0.00058514	-0.00106742	0.00061740	900	900	900	900
0.18862033 	36.10174060	-0.01020374	0.00504738	1.04856002	-0.00019097	0.00050280	0.00116114	900	900	900	900
0.36446714 	36.46620774	-0.01019738	0.00503703	1.04862022	0.00322486	-0.00328009	0.00104887	900	900	900	900
0.66224813 	37.12845588	-0.01018558	0.00503285	1.04872060	0.00220456	-0.00259575	0.00215443	900	900	900	900
0.61647749 	37.74493337	-0.01015310	0.00510860	1.04876184	0.00277707	0.00141610	0.00142268	900	900	900	900
0.60690331 	38.35183668	-0.01018924	0.00509481	1.04878163	0.00168373	-0.00104461	0.00173815	900	900	900	900
0.55678844 	38.90862513	-0.01020607	0.00504403	1.04883838	0.00045087	-0.00311374	0.00105795	900	900	900	900
0.48376250 	39.39238763	-0.01020282	0.00511696	1.04893494	-0.00175411	-0.00042682	0.00314904	900	900	900	900
0.29680443 	39.68919206	-0.01017891	0.00516314	1.04894602	0.00267058	-0.00290324	-0.00109742	900	900	900	900
0.24649787 	39.93568993	-0.01022869	0.00519407	1.04900634	-0.00094550	0.00334095	0.00382515	900	900	900	900
0.39563298 	40.33132291	-0.01021367	0.00509061	1.04896510	-0.00099490	0.00150416	-0.00002430	900	900	900	900
0.62971878 	40.96104169	-0.01020384	0.00503650	1.04891217	-0.00150670	-0.00282793	0.00119095	900	900	900	900
0.66565466 	41.62669635	-0.01018818	0.00500581	1.04893982	-0.00130269	-0.00212739	0.00034368	900	900	900	900
0.38643622 	42.01313257	-0.01010782	0.00506284	1.04891050	-0.00063024	-0.00197053	0.00065071	900	900	900	900
0.27788258 	42.29101515	-0.01017092	0.00512423	1.04888093	-0.00870480	0.00017408	0.00031606	900	900	900	900
0.19801450 	42.48902965	-0.01002327	0.00514398	1.04885185	-0.00055534	0.00640577	-0.00265229	900	900	900	900
0.30911565 	42.79814529	-0.00995550	0.00508788	1.04902101	0.00060385	-0.00386528	0.00667672	900	900	900	900
0.46033859 	43.25848389	-0.00999193	0.00523462	1.04896641	0.00040601	-0.00171044	0.00076842	900	900	900	900
0.68719363 	43.94567752	-0.00994083	0.00521440	1.04906881	-0.00112391	0.00206415	-0.00141316	900	900	900	900
0.66449523 	44.61017275	-0.00994659	0.00516237	1.04909647	-0.00094544	-0.00285583	-0.00048337	900	900	900	900
0.61288333 	45.22305608	-0.00991234	0.00524059	1.04916406	0.00009183	-0.00305222	0.00080486	900	900	900	900
0.63259983 	45.85565591	-0.00985190	0.00537488	1.04920793	0.00159835	-0.00003446	0.00244163	900	900	900	900
0.36223149 	46.21788740	-0.00981191	0.00546173	1.04918897	0.00018450	0.00152450	0.00120777	900	900	900	900
0.57852316 	46.79641056	-0.00984609	0.00536382	1.04917753	-0.00149649	-0.00076092	-0.00121350	900	900	900	900
0.45016408 	47.24657464	-0.00991349	0.00539364	1.04910028	-0.00101271	-0.00121843	-0.00154911	900	900	900	900
0.42840767 	47.67498231	-0.00991720	0.00541981	1.04915559	0.00105185	-0.00205376	-0.00063394	900	900	900	900
0.42981505 	48.10479736	-0.00984519	0.00543078	1.04925656	-0.00040466	-0.00029667	0.00299372	900	900	900	900
0.42939234 	48.53418970	-0.00981344	0.00545069	1.04928827	0.00005875	0.00022701	0.00261960	900	900	900	900
0.45440769 	48.98859739	-0.00980335	0.00539850	1.04927099	-0.00056257	-0.00160632	0.00021683	900	900	900	900
0.44668531 	49.43528271	-0.00982596	0.00541025	1.04921520	0.00023138	-0.00076884	0.00043826	900	900	900	900
0.43361425 	49.86889696	-0.00980172	0.00543625	1.04920983	0.00033721	-0.00085091	0.00111772	900	900	900	900
0.13940907 	50.00830603	-0.00981667	0.00539932	1.04917932	-0.00082680	-0.00126457	0.00088602	900	900	900	900
0.09665298 	50.10495901	-0.00981811	0.00545259	1.04910839	0.00010977	-0.00146029	0.00153902	900	900	900	900
0.28273773 	50.38769674	-0.00980440	0.00548186	1.04901230	0.00031462	-0.00105649	0.00096801	900	900	900	900
0.44720387 	50.83490062	-0.00980319	0.00549101	1.04896283	0.00086452	0.00033082	0.00182751	900	900	900	900
0.55128956 	51.38619018	-0.00975220	0.00548877	1.04891372	-0.00025789	0.00043769	0.00094858	900	900	900	900
0.12223172 	51.50842190	-0.00976634	0.00543735	1.04886210	-0.00006642	-0.00192844	0.00085063	900	900	900	900
0.16314626 	51.67156816	-0.00974729	0.00541312	1.04881477	-0.00027250	-0.00065861	0.00114316	900	900	900	900
0.06086040 	51.73242855	-0.00978235	0.00532979	1.04877913	-0.00059908	-0.00141977	0.00064064	900	900	900	900
0.09651351 	51.82894206	-0.00982436	0.00530318	1.04875433	-0.00079696	-0.00213386	0.00091537	900	900	900	900
0.06645989 	51.89540195	-0.00983733	0.00527781	1.04875588	0.00045838	-0.00140783	0.00113460	900	900	900	900
0.08123493 	51.97663689	-0.00979627	0.00521101	1.04873621	0.00060193	-0.00157452	0.00164419	900	900	900	900
0.04049206 	52.01712894	-0.00987101	0.00522645	1.04878652	-0.00056068	-0.00031171	0.00094474	900	900	900	900
0.11162138 	52.12875032	-0.00988265	0.00510623	1.04886031	-0.00044218	-0.00157296	0.00060253	900	900	900	900
0.09695196 	52.22570229	-0.00987317	0.00505488	1.04893279	-0.00021778	-0.00168559	0.00107011	900	900	900	900
0.12206602 	52.34776831	-0.00982535	0.00498673	1.04898989	0.00018338	-0.00024219	0.00226714	900	900	900	900
0.18291879 	52.53068709	-0.00983073	0.00494485	1.04907966	0.00084234	-0.00131487	0.00289239	900	900	900	900
0.17272639 	52.70341349	-0.00979876	0.00492326	1.04909492	0.00011356	0.00126939	0.00201369	900	900	900	900
0.13774347 	52.84115696	-0.00982626	0.00487481	1.04901016	0.00063656	-0.00065950	-0.00114980	900	900	900	900
0.03541350 	52.87657046	-0.00988283	0.00483002	1.04905987	-0.00115774	-0.00247495	-0.00028432	900	900	900	900
0.12194753 	52.99851799	-0.00989104	0.00482704	1.04908431	-0.00076901	-0.00109987	0.00140109	900	900	900	900
0.22933245 	53.22785044	-0.00987631	0.00480262	1.04908454	0.00063805	0.00062666	0.00262497	900	900	900	900
0.19336534 	53.42121577	-0.00994373	0.00478060	1.04907942	-0.00107613	-0.00055215	-0.00015655	900	900	900	900
0.15761161 	53.57882738	-0.00997849	0.00472446	1.04912972	0.00017408	-0.00237514	0.00131285	900	900	900	900
0.12184095 	53.70066833	-0.01000558	0.00469189	1.04910290	-0.00090556	-0.00245689	-0.00088771	900	900	900	900
0.06095481 	53.76162314	-0.01000317	0.00467331	1.04916191	-0.00032050	-0.00126512	0.00191021	900	900	900	900
0.09697127 	53.85859442	-0.01001279	0.00464615	1.04915905	0.00042479	-0.00004774	0.00232370	900	900	900	900
0.04555559 	53.90415001	-0.01006934	0.00462195	1.04907250	-0.00108117	-0.00131685	0.00125752	900	900	900	900
0.02518702 	53.92933702	-0.01007339	0.00456460	1.04904425	-0.00013076	-0.00123282	0.00207195	900	900	900	900
0.11678767 	54.04612470	-0.01012330	0.00450660	1.04903269	-0.00126147	-0.00050342	0.00114662	900	900	900	900
0.16869497 	54.21481967	-0.01013028	0.00452715	1.04911661	0.00005219	-0.00110048	0.00181459	900	900	900	900
0.00473857 	54.21955824	-0.01008446	0.00455584	1.04921126	0.00041591	-0.00040389	0.00226116	900	900	900	900
0.17660022 	54.39615846	-0.01005878	0.00451259	1.04924607	0.00104167	-0.00143226	0.00164727	900	900	900	900
0.39045882 	54.78661728	-0.00999932	0.00449277	1.04927695	0.00060771	0.00019255	0.00086613	900	900	900	900
0.26043272 	55.04705000	-0.00999654	0.00449778	1.04930711	-0.00040490	-0.00233226	-0.00035634	900	900	900	900
0.33235669 	55.37940669	-0.00995763	0.00451993	1.04945624	-0.00162314	-0.00195712	0.00246362	900	900	900	900
0.46163750 	55.84104419	-0.00988874	0.00451645	1.04949236	0.00084530	-0.00211073	-0.00252911	900	900	900	900
0.44315314 	56.28419733	-0.00977958	0.00444778	1.04972827	0.00060255	-0.00023783	0.00479953	900	900	900	900
0.30603027 	56.59022760	-0.00976170	0.00446428	1.04973662	-0.00022515	0.00004965	0.00164854	900	900	900	900
0.13369775 	56.72392535	-0.00974868	0.00447337	1.04980087	-0.00018102	-0.00246545	0.00129999	900	900	900	900
0.27623773 	57.00016308	-0.00971808	0.00449267	1.05000889	0.00094475	-0.00057277	0.00132252	900	900	900	900
0.30089188 	57.30105495	-0.00969986	0.00452467	1.05009496	0.00000671	0.00048152	-0.00011216	900	900	900	900
0.26557350 	57.56662846	-0.00968108	0.00452585	1.05019486	0.00034343	-0.00169176	-0.00009496	900	900	900	900
0.32313013 	57.88975859	-0.00968659	0.00454310	1.05028391	0.00079107	-0.00124872	0.00279411	900	900	900	900
0.23999882 	58.12975740	-0.00971970	0.00458430	1.05031490	-0.00014016	0.00027344	0.00045602	900	900	900	900
0.26512337 	58.39488077	-0.00977632	0.00457632	1.05044413	-0.00093577	-0.00172804	0.00060956	900	900	900	900
0.25531125 	58.65019202	-0.00983403	0.00458896	1.05050147	-0.00077082	-0.00088124	0.00272110	900	900	900	900
0.22962832 	58.87982035	-0.00979031	0.00465425	1.05054116	0.00048981	-0.00042497	0.00027209	900	900	900	900
0.22973824 	59.10955858	-0.00971439	0.00467660	1.05056524	-0.00066032	-0.00518402	0.00137313	900	900	900	900
0.23604870 	59.34560728	-0.01000882	0.00468859	1.05049086	0.00098150	-0.00184935	-0.00041392	900	900	900	900
0.22022271 	59.56582999	-0.01015551	0.00469746	1.05058241	-0.00013437	0.00225433	0.00176113	900	900	900	900
0.20950985 	59.77533984	-0.01010854	0.00469430	1.05065405	0.00065413	-0.00180265	0.00226818	900	900	900	900
0.20950294 	59.98484278	-0.01011062	0.00480293	1.05070269	0.00101822	-0.00255602	0.00096321	900	900	900	900
0.20973420 	60.19457698	-0.01009632	0.00486159	1.05076957	0.00119654	0.00053303	0.00117373	900	900	900	900
0.22026873 	60.41484571	-0.01013841	0.00486726	1.05088842	-0.00053518	-0.00035861	0.00149463	900	900	900	900
0.21493387 	60.62977958	-0.01014296	0.00489696	1.05091894	-0.00033520	-0.00126210	0.00115443	900	900	900	900
0.23121095 	60.86099052	-0.01019414	0.00491756	1.05099738	-0.00098256	-0.00116232	0.00148404	900	900	900	900
0.20968151 	61.07067204	-0.01018108	0.00493545	1.05104065	-0.00056024	-0.00084041	0.00129372	900	900	900	900
0.22033024 	61.29100227	-0.01021330	0.00489982	1.05115139	0.00020353	-0.00136438	0.00144548	900	900	900	900
0.20960951 	61.50061178	-0.01022733	0.00493449	1.05122137	-0.00015463	-0.00052059	0.00171412	900	900	900	900
0.22491384 	61.72552562	-0.01024112	0.00498433	1.05129230	-0.00060977	-0.00071214	0.00158027	900	900	900	900
0.21463943 	61.94016504	-0.01024424	0.00501303	1.05139804	-0.00040686	-0.00070653	0.00123094	900	900	900	900
0.21501040 	62.15517545	-0.01023048	0.00506470	1.05150306	-0.00052525	-0.00045866	0.00115088	900	900	900	900
0.24839759 	62.40357304	-0.01023157	0.00508699	1.05153513	-0.00028170	-0.00103841	0.00110037	900	900	900	900
0.20951223 	62.61308527	-0.01026951	0.00511390	1.05162454	-0.00100317	-0.00140517	0.00109056	900	900	900	900
0.20940566 	62.82249093	-0.01030727	0.00511078	1.05169749	-0.00041685	-0.00101461	0.00125003	900	900	900	900
0.22008109 	63.04257202	-0.01026381	0.00517285	1.05180979	-0.00043177	-0.00081809	0.00156556	900	900	900	900
0.21979284 	63.26236486	-0.01025216	0.00522844	1.05182338	-0.00045853	-0.00075198	0.00098739	900	900	900	900
0.20947099 	63.47183585	-0.01017734	0.00527556	1.05190480	0.00012248	-0.00077894	0.00160921	900	900	900	900
0.23022914 	63.70206499	-0.01023101	0.00526128	1.05198264	0.00051092	-0.00082904	0.00104610	900	900	900	900
0.09731197 	63.79937696	-0.01021528	0.00524085	1.05204403	-0.00050039	-0.00360061	-0.00071456	900	900	900	900
0.04563332 	63.84501028	-0.01014235	0.00528605	1.05209613	-0.00082815	-0.00263518	0.00085272	900	900	900	900
0.02510285 	63.87011313	-0.01010963	0.00534052	1.05212247	0.00046653	0.00113969	0.00120190	900	900	900	900
0.11672735 	63.98684049	-0.01007325	0.00536616	1.05221331	-0.00045183	0.00064943	0.00167606	900	900	900	900
0.14246273 	64.12930322	-0.01006501	0.00534400	1.05229807	-0.00073222	-0.00208933	0.00144670	900	900	900	900
0.13197017 	64.26127338	-0.00987085	0.00540214	1.05234981	0.00963728	-0.00171954	0.00127258	900	900	900	900
0.20307350 	64.46434689	-0.00993468	0.00552456	1.05243182	0.00294330	0.00019998	0.00187276	900	900	900	900
0.14727259 	64.61161947	-0.00996633	0.00554290	1.05248094	-0.00099505	0.00033745	0.00205827	900	900	900	900
0.18337345 	64.79499292	-0.00996355	0.00559532	1.05252218	-0.00001320	-0.00155918	0.00063853	900	900	900	900
0.16243672 	64.95742965	-0.00994078	0.00565940	1.05262923	-0.00031298	-0.00115624	0.00148644	900	900	900	900
0.11743212 	65.07486176	-0.00995234	0.00561133	1.05267203	-0.00052956	-0.00101297	0.00182416	900	900	900	900
0.02010059 	65.09496236	-0.00994541	0.00563859	1.05273736	-0.00127019	-0.00031278	0.00083908	900	900	900	900
0.03581381 	65.13077617	-0.00988496	0.00563564	1.05278850	-0.00001707	-0.00176841	0.00156809	900	900	900	900
0.15301871 	65.28379488	-0.00986416	0.00564433	1.05285335	-0.00073339	-0.00160632	0.00104321	900	900	900	900
0.21962047 	65.50341535	-0.00988358	0.00559000	1.05289853	0.00033848	-0.00041080	0.00045630	900	900	900	900
0.29053235 	65.79394770	-0.00982945	0.00566208	1.05294859	0.00054787	-0.00199167	0.00203830	900	900	900	900
0.24015260 	66.03410029	-0.00977911	0.00576387	1.05301440	0.00006526	0.00200896	0.00175193	900	900	900	900
0.24474239 	66.27884269	-0.00974251	0.00577123	1.05305707	-0.00021722	0.00019574	0.00031903	900	900	900	900
0.21920609 	66.49804878	-0.00970312	0.00583112	1.05316138	-0.00038569	-0.00036570	0.00174536	900	900	900	900
0.27107096 	66.76911974	-0.00971200	0.00584110	1.05316663	0.00093462	0.00090153	0.00132971	900	900	900	900
0.24039412 	67.00951385	-0.00967573	0.00572543	1.05325580	0.00062001	0.00008263	0.00155030	900	900	900	900
0.21971607 	67.22922993	-0.00968961	0.00569964	1.05326331	0.00044806	-0.00068116	0.00099113	900	900	900	900
0.27999878 	67.50922871	-0.00967404	0.00574673	1.05329967	-0.00074048	-0.00090257	0.00147185	900	900	900	900
0.23434210 	67.74357080	-0.00969022	0.00583869	1.05335939	0.00000031	-0.00177998	0.00094802	900	900	900	900
0.22480416 	67.96837497	-0.00970040	0.00590685	1.05343616	-0.00013099	-0.00209579	0.00106195	900	900	900	900
0.19902062 	68.16739559	-0.00975846	0.00594792	1.05346978	-0.00050911	-0.00028770	0.00152237	900	900	900	900
0.31254864 	68.47994423	-0.00976442	0.00597069	1.05353320	-0.00049190	0.00005491	0.00164715	900	900	900	900
0.23975515 	68.71969938	-0.00977664	0.00600065	1.05357170	-0.00003463	-0.00027343	0.00052646	900	900	900	900
0.27549124 	68.99519062	-0.00981969	0.00603577	1.05361938	-0.00046428	-0.00092812	0.00098011	900	900	900	900
0.27007627 	69.26526690	-0.00978937	0.00613590	1.05369198	0.00248289	0.00180672	0.00258695	900	900	900	900
0.24997783 	69.51524472	-0.00983960	0.00615257	1.05362511	0.00297923	0.00235568	-0.00055654	900	900	900	900
0.23995519 	69.75519991	-0.00984874	0.00608695	1.05372953	0.00120701	-0.00166964	0.00126852	900	900	900	900
0.23069596 	69.98589587	-0.00998579	0.00620329	1.05379248	-0.00213922	-0.00186707	0.00077918	900	900	900	900
0.28046179 	70.26635766	-0.01007187	0.00622055	1.05382752	-0.00225371	0.00025286	-0.00078026	900	900	900	900
0.22445345 	70.49081111	-0.01008412	0.00619281	1.05397165	-0.00153494	0.00150217	0.00276570	900	900	900	900
0.21432400 	70.70513511	-0.01015373	0.00618652	1.05394995	-0.00020812	-0.00163162	0.00153753	900	900	900	900
0.27058196 	70.97571707	-0.01017491	0.00624092	1.05398488	0.00025856	-0.00163616	-0.00034936	900	900	900	900
0.23982549 	71.21554255	-0.01019189	0.00624127	1.05408287	0.00078999	-0.00009271	0.00116111	900	900	900	900
0.28092694 	71.49646950	-0.01019192	0.00622258	1.05415750	0.00126045	0.00057497	0.00119258	900	900	900	900
0.23958278 	71.73605227	-0.01025678	0.00624581	1.05419946	-0.00088001	-0.00105603	0.00076163	900	900	900	900
0.25028348 	71.98633575	-0.01025148	0.00625089	1.05427718	0.00001104	-0.00070607	0.00116256	900	900	900	900
0.19926739 	72.18560314	-0.01025883	0.00625873	1.05431628	-0.00047147	-0.00000467	0.00169140	900	900	900	900
0.23951483 	72.42511797	-0.01026996	0.00626077	1.05431736	-0.00009576	-0.00021389	0.00130678	900	900	900	900
0.21933889 	72.64445686	-0.01032498	0.00626409	1.05442095	-0.00102227	-0.00066395	0.00140776	900	900	900	900
0.26076841 	72.90522528	-0.01026876	0.00625002	1.05448318	0.00006044	-0.00073451	0.00123022	900	900	900	900
0.27540326 	73.18062854	-0.01023886	0.00624630	1.05458057	0.00016785	-0.00109558	0.00159118	900	900	900	900
0.22960472 	73.41023326	-0.01025767	0.00621131	1.05463278	0.00021703	-0.00050254	0.00025653	900	900	900	900
0.23954844 	73.64978170	-0.01028767	0.00619296	1.05462396	-0.00063783	-0.00088182	0.00110634	900	900	900	900
0.23497128 	73.88475299	-0.01030327	0.00614361	1.05469513	0.00016720	-0.00212904	0.00140576	900	900	900	900
0.20923853 	74.09399152	-0.01029949	0.00610760	1.05472887	0.00113076	-0.00257924	0.00220296	900	900	900	900
0.30777121 	74.40176272	-0.01028959	0.00608743	1.05481565	0.00107501	0.00114190	0.00174941	900	900	900	900
0.24999881 	74.65176153	-0.01032149	0.00605112	1.05493772	-0.00067887	-0.00041221	0.00203378	900	900	900	900
0.20963430 	74.86139584	-0.01026213	0.00603054	1.05494714	-0.00036395	-0.00204435	0.00087930	900	900	900	900
0.17321563 	75.03461146	-0.01026307	0.00605511	1.05500746	-0.00047535	-0.00076638	0.00081240	900	900	900	900
0.08115697 	75.11576843	-0.01026519	0.00605822	1.05505943	-0.00055566	0.00049118	0.00163701	900	900	900	900
0.09138131 	75.20714974	-0.01022392	0.00596818	1.05514407	0.00348865	-0.00107952	0.00179130	900	900	900	900
0.07651067 	75.28366041	-0.01019767	0.00585951	1.05520868	-0.00000416	-0.00146513	0.00314258	900	900	900	900
0.08625102 	75.36991143	-0.01020283	0.00594342	1.05524945	0.00050161	-0.00162428	0.00074076	900	900	900	900
0.09128022 	75.46119165	-0.01018525	0.00594481	1.05535710	0.00027884	-0.00070450	0.00226389	900	900	900	900
0.09628463 	75.55747628	-0.01014256	0.00591550	1.05539465	-0.00080207	-0.00012431	0.00127365	900	900	900	900
0.10179353 	75.65926981	-0.01009751	0.00582267	1.05552042	0.00000776	-0.00142173	0.00149868	900	900	900	900
0.28610063 	75.94537044	-0.01008085	0.00582141	1.05558372	-0.00015812	-0.00138182	0.00058002	900	900	900	900
0.25508285 	76.20045328	-0.00995932	0.00581197	1.05561793	0.00041718	-0.00123959	0.00195394	900	900	900	900
0.26505518 	76.46550846	-0.00997040	0.00569566	1.05574465	0.00104553	-0.00657933	-0.00295755	900	900	900	900
0.25025320 	76.71576166	-0.00997908	0.00564968	1.05570877	0.00040223	-0.00312949	-0.00309133	900	900	900	900
0.24456143 	76.96032310	-0.00996679	0.00571313	1.05589056	0.00122759	-0.00098841	0.00159175	900	900	900	900
0.20925760 	77.16958070	-0.00991943	0.00577921	1.05599546	-0.00143861	-0.00046328	0.00162833	900	900	900	900
0.27617788 	77.44575858	-0.00986958	0.00574660	1.05600727	0.00127120	-0.00242758	0.00252825	900	900	900	900
0.22998190 	77.67574048	-0.00989186	0.00570898	1.05605960	-0.00194274	-0.00024536	0.00074642	900	900	900	900
0.25510740 	77.93084788	-0.00989717	0.00570107	1.05607784	0.00096312	0.00096235	0.00233087	900	900	900	900
0.25503230 	78.18588018	-0.00991631	0.00566445	1.05613279	0.00093378	0.00024252	0.00206702	900	900	900	900
0.24978328 	78.43566346	-0.00995279	0.00565436	1.05618548	-0.00190732	0.00219136	0.00238365	900	900	900	900
0.23000813 	78.66567159	-0.00997228	0.00573248	1.05629706	0.00075077	0.00210771	0.00196992	900	900	900	900
0.27221203 	78.93788362	-0.00995477	0.00567530	1.05631030	-0.00157629	-0.00166215	-0.00015021	900	900	900	900
0.25489378 	79.19277740	-0.01001072	0.00561488	1.05630040	-0.00018897	-0.00237212	-0.00094363	900	900	900	900
0.30044770 	79.49322510	-0.01001044	0.00565254	1.05639839	-0.00109268	0.00170039	0.00145258	900	900	900	900
0.22992611 	79.72315121	-0.01000180	0.00564016	1.05645072	0.00096982	0.00031299	0.00332182	900	900	900	900
0.23987222 	79.96302342	-0.01002268	0.00555972	1.05650413	-0.00085391	-0.00420751	0.00022979	900	900	900	900
0.23959041 	80.20261383	-0.00999730	0.00557125	1.05653572	0.00019465	0.00087572	0.00104415	900	900	900	900
0.28203034 	80.48464417	-0.01001941	0.00555222	1.05657566	0.00017621	-0.00140859	0.00038072	900	900	900	900
0.22516632 	80.70981050	-0.01005607	0.00563459	1.05664253	0.00141234	0.00085585	0.00100009	900	900	900	900
0.25547934 	80.96528983	-0.01011706	0.00553482	1.05668688	0.00050076	0.00028992	0.00158813	900	900	900	900
0.22971916 	81.19500899	-0.01015352	0.00547456	1.05671537	-0.00082976	-0.00071878	0.00125265	900	900	900	900
0.27015829 	81.46516728	-0.01015914	0.00541227	1.05679297	0.00063399	-0.00092601	0.00089094	900	900	900	900
0.28062630 	81.74579358	-0.01018884	0.00539257	1.05691385	0.00001052	-0.00060194	0.00243265	900	900	900	900
0.28118706 	82.02698064	-0.01013626	0.00534277	1.05698264	0.00367326	0.00023903	0.00288753	900	900	900	900
0.20950055 	82.23648119	-0.01017811	0.00539859	1.05704868	0.00228465	-0.00145196	0.00235615	900	900	900	900
0.24981236 	82.48629355	-0.01019106	0.00541666	1.05704844	-0.00013270	-0.00064902	0.00078367	900	900	900	900
0.24009371 	82.72638726	-0.01023613	0.00540871	1.05711985	-0.00105124	-0.00106254	0.00118901	900	900	900	900
0.23954868 	82.96593595	-0.01023018	0.00541539	1.05716729	-0.00009683	-0.00237831	0.00167491	900	900	900	900
0.21939993 	83.18533587	-0.01025278	0.00542689	1.05713260	0.00045225	-0.00142370	0.00190513	900	900	900	900
0.21927047 	83.40460634	-0.01030114	0.00540739	1.05720961	-0.00063388	0.00044988	0.00098312	900	900	900	900
0.30172467 	83.70633101	-0.01033137	0.00539210	1.05722475	-0.00252595	0.00185087	0.00184454	900	900	900	900
0.21943235 	83.92576337	-0.01030795	0.00541118	1.05726707	0.00049578	-0.00157590	0.00163696	900	900	900	900
0.25037360 	84.17613697	-0.01028057	0.00535614	1.05735183	-0.00043047	-0.00188432	0.00274859	900	900	900	900
0.25506568 	84.43120265	-0.01032115	0.00537338	1.05732548	-0.00451814	0.00046585	-0.00447326	900	900	900	900
0.28088093 	84.71208358	-0.01033346	0.00533611	1.05746233	-0.00062347	-0.00229887	0.00437861	900	900	900	900
0.23507833 	84.94716191	-0.01026722	0.00540143	1.05746198	0.00069850	-0.00060908	0.00156188	900	900	900	900
0.31119013 	85.25835204	-0.01028083	0.00550229	1.05754173	0.00012781	0.00014659	0.00062077	900	900	900	900
0.27496886 	85.53332090	-0.01023478	0.00556416	1.05749702	0.00178556	-0.00153177	0.00161292	900	900	900	900
0.32273555 	85.85605645	-0.01016623	0.00558269	1.05747175	0.00201552	-0.00214006	0.00181846	900	900	900	900
0.24475312 	86.10080957	-0.01018562	0.00565766	1.05751503	0.00089865	0.00179220	0.00155198	900	900	900	900
0.26667929 	86.36748886	-0.01024000	0.00566121	1.05752504	-0.00077912	-0.00005657	0.00085969	900	900	900	900
0.28597975 	86.65346861	-0.01016439	0.00566248	1.05756807	0.00163061	-0.00076438	0.00268960	900	900	900	900
0.23992467 	86.89339328	-0.01015603	0.00573829	1.05755246	0.00067255	-0.00388114	-0.00069347	900	900	900	900
0.26000977 	87.15340304	-0.01015781	0.00580872	1.05757546	-0.00284615	-0.00042457	0.00047849	900	900	900	900
0.21944499 	87.37284803	-0.01009351	0.00588004	1.05758893	0.00138408	0.00260240	0.00170665	900	900	900	900
0.22973180 	87.60257983	-0.01006540	0.00582924	1.05758274	-0.00185833	-0.00064853	0.00101979	900	900	900	900
0.25027657 	87.85285640	-0.01003776	0.00587763	1.05756807	0.00176490	-0.00328697	0.00193398	900	900	900	900
0.25585437 	88.10871077	-0.01001209	0.00600142	1.05767941	0.00036485	0.00020590	0.00126022	900	900	900	900
0.23965788 	88.34836864	-0.00997087	0.00602307	1.05766821	0.00004785	0.00309637	0.00198096	900	900	900	900
0.20938134 	88.55774999	-0.01000362	0.00606563	1.05765724	-0.00191928	0.00142253	0.00107667	900	900	900	900
0.25515246 	88.81290245	-0.00990675	0.00609951	1.05763197	0.00003581	-0.00011780	0.00149718	900	900	900	900
0.22971559 	89.04261804	-0.00988989	0.00614021	1.05768657	-0.00094809	-0.00206309	0.00229009	900	900	900	900
0.30036831 	89.34298635	-0.00996519	0.00614801	1.05762815	-0.00175875	-0.00135245	0.00015780	900	900	900	900
0.29582143 	89.63880777	-0.00999125	0.00614486	1.05764127	-0.00085970	0.00086354	0.00111233	900	900	900	900
0.27049637 	89.90930414	-0.00998343	0.00610746	1.05767548	-0.00037279	-0.00027772	0.00129191	900	900	900	900
0.20422816 	90.11353230	-0.01000686	0.00614386	1.05768919	-0.00233218	-0.00093595	0.00143334	900	900	900	900
0.20894933 	90.32248163	-0.01002357	0.00613994	1.05771041	-0.00207213	-0.00443912	0.00000705	900	900	900	900
0.20397186 	90.52645350	-0.00993512	0.00622136	1.05771959	0.00146310	-0.00341392	0.00016207	900	900	900	900
0.25677133 	90.78322482	-0.00996985	0.00637463	1.05770171	-0.00182070	0.00191222	0.00073230	900	900	900	900
0.23473454 	91.01795936	-0.00999060	0.00640102	1.05768037	0.00113647	0.00170910	0.00307629	900	900	900	900
0.25063777 	91.26859713	-0.01001074	0.00635615	1.05768096	0.00201096	-0.00042761	0.00060490	900	900	900	900
0.21943212 	91.48802924	-0.01002824	0.00633953	1.05767310	-0.00054817	0.00099237	0.00022165	900	900	900	900
0.23489594 	91.72292519	-0.00998731	0.00635381	1.05776358	0.00039154	-0.00055700	0.00155685	900	900	900	900
0.25990367 	91.98282886	-0.01000803	0.00639839	1.05780172	-0.00058027	-0.00233166	0.00007737	900	900	900	900
0.26107407 	92.24390292	-0.01000412	0.00645780	1.05776763	-0.00069413	-0.00142796	0.00031393	900	900	900	900
0.22456217 	92.46846509	-0.01002384	0.00652138	1.05784833	0.00083138	0.00035632	0.00128026	900	900	900	900
0.30161643 	92.77008152	-0.01003858	0.00657274	1.05784857	0.00010106	0.00092440	0.00139316	900	900	900	900
0.20953178 	92.97961330	-0.01006019	0.00661676	1.05786192	0.00012291	-0.00040012	0.00089829	900	900	900	900
0.25998020 	93.23959351	-0.01006594	0.00662072	1.05787671	0.00036341	-0.00095964	0.00157652	900	900	900	900
0.19906378 	93.43865728	-0.01010154	0.00663696	1.05786633	0.00026323	-0.00057114	0.00057519	900	900	900	900
0.23017049 	93.66882777	-0.01011357	0.00665120	1.05785918	-0.00043946	-0.00010352	0.00108384	900	900	900	900
0.25186181 	93.92068958	-0.01011472	0.00668252	1.05784500	0.00049158	-0.00115684	0.00084501	900	900	900	900
0.27066779 	94.19135737	-0.01010708	0.00664844	1.05781102	-0.00010393	-0.00121341	0.00007117	900	900	900	900
0.25521708 	94.44657445	-0.01009901	0.00666641	1.05780649	-0.00119928	0.00009110	0.00037693	900	900	900	900
0.25028682 	94.69686127	-0.01008302	0.00664719	1.05782080	0.00130059	-0.00034949	0.00133171	900	900	900	900
0.26511884 	94.96198010	-0.01011264	0.00661864	1.05777705	0.00026295	-0.00080785	0.00088100	900	900	900	900
0.23464847 	95.19662857	-0.01009797	0.00663272	1.05778539	-0.00019102	-0.00093009	0.00157577	900	900	900	900
0.25467205 	95.45130062	-0.01005175	0.00668875	1.05774748	-0.00082194	-0.00016043	0.00097077	900	900	900	900
0.30172825 	95.75302887	-0.01004859	0.00665107	1.05773699	-0.00125825	-0.00002717	0.00125860	900	900	900	900
0.26549911 	96.01852798	-0.01003797	0.00661176	1.05774188	0.00021862	-0.00163190	0.00034927	900	900	900	900
0.20924282 	96.22777081	-0.00997544	0.00664129	1.05774260	0.00066044	-0.00130988	0.00134151	900	900	900	900
0.23963213 	96.46740294	-0.00994449	0.00665387	1.05769467	0.00020170	-0.00015958	0.00108387	900	900	900	900
0.27051973 	96.73792267	-0.00994110	0.00662387	1.05765879	0.00075369	0.00006616	0.00205174	900	900	900	900
0.19394183 	96.93186450	-0.00999976	0.00657514	1.05762815	-0.00091527	-0.00224007	0.00096512	900	900	900	900
0.27984118 	97.21170568	-0.00997782	0.00658428	1.05764496	-0.00029234	-0.00269362	0.00089889	900	900	900	900
0.25012279 	97.46182847	-0.00992455	0.00662196	1.05761015	-0.00025050	-0.00021131	-0.00014789	900	900	900	900
0.26058555 	97.72241402	-0.00983613	0.00662891	1.05760026	0.00064399	0.00062333	0.00210860	900	900	900	900
0.20420718 	97.92662120	-0.00981160	0.00651124	1.05747020	0.00021650	-0.00346171	0.00020259	900	900	900	900
0.26468801 	98.19130921	-0.00971976	0.00655764	1.05756533	-0.00080526	-0.00259089	-0.00030263	900	900	900	900
0.28618908 	98.47749829	-0.00964163	0.00672973	1.05762053	0.00098811	0.00209938	0.00211534	900	900	900	900
0.27631950 	98.75381780	-0.00963576	0.00657716	1.05765295	0.00640531	0.00607313	0.00889729	900	900	900	900
0.21985078 	98.97366858	-0.00970862	0.00657738	1.05771220	-0.00084072	-0.00270766	0.00132858	900	900	900	900
0.23989725 	99.21356583	-0.00967336	0.00667603	1.05766976	0.00082080	0.00180619	-0.00184046	900	900	900	900
0.21953607 	99.43310189	-0.00981488	0.00640081	1.05760527	0.00065870	-0.01435889	0.00022268	900	900	900	900
0.30641437 	99.73951626	-0.00975355	0.00658594	1.05766964	-0.00086910	-0.00097117	0.00458692	900	900	900	900
0.23975182 	99.97926807	-0.00978342	0.00663631	1.05760026	-0.00175905	0.00175461	-0.00011725	900	900	900	900
0.24989128 	100.22915936	-0.00983238	0.00660537	1.05765224	-0.00296535	-0.00113659	0.00034298	900	900	900	900
0.22450352 	100.45366287	-0.00984961	0.00663737	1.05770624	-0.00053275	-0.00131434	0.00155912	900	900	900	900
0.24521041 	100.69887328	-0.00986950	0.00664199	1.05773640	0.00031098	-0.00021615	0.00202959	900	900	900	900
0.25040340 	100.94927669	-0.00987209	0.00665830	1.05775762	-0.00023578	-0.00072464	0.00082930	900	900	900	900
0.25490117 	101.20417786	-0.00992392	0.00665482	1.05774868	-0.00056378	-0.00113842	0.00081900	900	900	900	900
0.23958588 	101.44376373	-0.00998572	0.00665896	1.05774486	0.00055975	-0.00053355	0.00116864	900	900	900	900
0.26516461 	101.70892835	-0.00998761	0.00665798	1.05779696	-0.00122648	-0.00142829	0.00050264	900	900	900	900
0.20935154 	101.91827989	-0.01003698	0.00669987	1.05779183	-0.00016192	-0.00129202	0.00099023	900	900	900	900
0.24659348 	102.16487336	-0.01007485	0.00672745	1.05781794	-0.00010484	-0.00011211	0.00057402	900	900	900	900
0.21926808 	102.38414145	-0.01011967	0.00669994	1.05786788	-0.00043616	-0.00024594	0.00159951	900	900	900	900
0.30074573 	102.68488717	-0.01007700	0.00671134	1.05788267	0.00054208	-0.00013156	0.00120217	900	900	900	900
0.21976256 	102.90464973	-0.01005347	0.00668867	1.05781770	-0.00080757	0.00080512	0.00087643	900	900	900	900
0.23946905 	103.14411879	-0.01002272	0.00670931	1.05782342	-0.00105860	-0.00097448	0.00011256	900	900	900	900
0.26582861 	103.40994740	-0.01001904	0.00669826	1.05791128	0.00055262	-0.00019285	0.00133551	900	900	900	900
0.24010038 	103.65004778	-0.00996476	0.00666532	1.05792785	-0.00011847	-0.00094095	0.00175656	900	900	900	900
0.26486182 	103.91490960	-0.00993932	0.00663612	1.05797791	0.00066315	-0.00112630	0.00099808	900	900	900	900
0.24469662 	104.15960622	-0.00992254	0.00660454	1.05798566	-0.00012577	-0.00109065	0.00129915	900	900	900	900
0.32650375 	104.48610997	-0.00993119	0.00661345	1.05802262	-0.00015311	-0.00034204	0.00134003	900	900	900	900
0.26040363 	104.74651361	-0.00995093	0.00659522	1.05804121	-0.00062755	-0.00074492	0.00207184	900	900	900	900
0.25480461 	105.00131822	-0.00993677	0.00649635	1.05805039	-0.00096953	-0.00110524	0.00131785	900	900	900	900
0.22963142 	105.23094964	-0.00994357	0.00647732	1.05813837	-0.00018146	-0.00030682	0.00214281	900	900	900	900
0.22434282 	105.45529246	-0.00993634	0.00642858	1.05816746	-0.00033137	-0.00070464	0.00124414	900	900	900	900
0.23028946 	105.68558192	-0.00982998	0.00651653	1.05829406	0.00339045	0.00844225	-0.00046173	900	900	900	900
0.24534893 	105.93093085	-0.00991065	0.00627973	1.05827451	0.00036238	0.00110281	-0.00088403	900	900	900	900
0.26624298 	106.19717383	-0.00995862	0.00621296	1.05834258	-0.00152583	-0.00084215	-0.00017974	900	900	900	900
0.36399341 	106.56116724	-0.00995885	0.00621422	1.05840445	-0.00013132	-0.00351762	0.00113356	900	900	900	900
0.23524022 	106.79640746	-0.00991101	0.00622001	1.05841362	0.00018046	-0.00167242	0.00266825	900	900	900	900
0.20921612 	107.00562358	-0.00990799	0.00615371	1.05845869	0.00055011	0.00071557	0.00141836	900	900	900	900
0.21435094 	107.21997452	-0.00991026	0.00605695	1.05849934	0.00037729	-0.00062006	0.00151832	900	900	900	900
0.20900917 	107.42898369	-0.00990251	0.00599627	1.05853903	0.00070048	-0.00159252	0.00075726	900	900	900	900
0.25513339 	107.68411708	-0.00990637	0.00595277	1.05857360	0.00028890	-0.00129226	0.00097420	900	900	900	900
0.22986627 	107.91398335	-0.00987280	0.00596083	1.05857134	-0.00137560	-0.00044954	0.00049063	900	900	900	900
0.26094913 	108.17493248	-0.00986176	0.00587757	1.05859387	-0.00151448	-0.00011437	0.00112636	900	900	900	900
0.23485446 	108.40978694	-0.00982649	0.00581552	1.05862093	-0.00086962	-0.00024743	0.00079373	900	900	900	900
0.27015376 	108.67994070	-0.00978875	0.00574323	1.05861664	0.00049639	-0.00093756	0.00078883	900	900	900	900
0.21970725 	108.89964795	-0.00977815	0.00578963	1.05863833	0.00018282	-0.00182699	0.00059372	900	900	900	900
0.26971126 	109.16935921	-0.00979048	0.00579968	1.05862522	0.00045434	-0.00057823	0.00140367	900	900	900	900
0.20964622 	109.37900543	-0.00975612	0.00584725	1.05866265	0.00068674	0.00087916	0.00223935	900	900	900	900
0.27065563 	109.64966106	-0.00977234	0.00581385	1.05866241	-0.00126880	-0.00143119	0.00104646	900	900	900	900
0.26003265 	109.90969372	-0.00974201	0.00583309	1.05871284	0.00114540	-0.00142037	0.00175690	900	900	900	900
0.25475883 	110.16445255	-0.00974465	0.00582442	1.05874455	0.00068681	-0.00088713	0.00144030	900	900	900	900
0.26531553 	110.42976809	-0.00971971	0.00582853	1.05880880	-0.00073123	-0.00065879	0.00104005	900	900	900	900
0.24528217 	110.67505026	-0.00974086	0.00583403	1.05876911	0.00013208	-0.00097210	0.00127738	900	900	900	900
0.23522425 	110.91027451	-0.00971584	0.00582972	1.05877364	-0.00061203	-0.00110253	0.00007080	900	900	900	900
0.30640984 	111.21668434	-0.00969915	0.00585998	1.05875146	-0.00027598	-0.00041225	0.00097321	900	900	900	900
0.24983335 	111.46651769	-0.00968668	0.00586086	1.05881262	-0.00063139	-0.00045165	0.00125517	900	900	900	900
0.25052953 	111.71704721	-0.00967796	0.00589634	1.05883169	0.00007346	-0.00095512	0.00137368	900	900	900	900
0.21939445 	111.93644166	-0.00963008	0.00589693	1.05884147	0.00019394	-0.00069901	0.00141693	900	900	900	900
0.24488115 	112.18132281	-0.00957193	0.00591397	1.05890143	0.00113679	0.00069645	0.00224586	900	900	900	900
0.24982429 	112.43114710	-0.00956663	0.00590524	1.05893314	-0.00018674	-0.00154007	0.00099996	900	900	900	900
0.32638431 	112.75753140	-0.00955752	0.00587379	1.05892837	-0.00067765	-0.00377233	0.00228724	900	900	900	900
0.23476601 	112.99229741	-0.00951124	0.00594960	1.05896926	-0.00212754	-0.00422144	0.00217460	900	900	900	900
0.21433020 	113.20662761	-0.00954537	0.00601370	1.05900502	-0.00264193	0.00078765	0.00145163	900	900	900	900
0.22454095 	113.43116856	-0.00963498	0.00596184	1.05897045	-0.00253223	0.00173495	-0.00021715	900	900	900	900
0.22002697 	113.65119553	-0.00964978	0.00594601	1.05893552	-0.00081764	-0.00130469	0.00072398	900	900	900	900
0.27077699 	113.92197251	-0.00969486	0.00592871	1.05892980	0.00013479	-0.00294560	0.00066075	900	900	900	900
0.23964763 	114.16162014	-0.00972983	0.00598498	1.05896044	0.00014050	0.00000319	0.00159101	900	900	900	900
0.28015566 	114.44177580	-0.00969414	0.00598408	1.05897892	-0.00050895	-0.00070754	0.00139985	900	900	900	900
0.22485328 	114.66662908	-0.00968641	0.00598777	1.05896401	0.00006145	-0.00059860	0.00094702	900	900	900	900
0.27246284 	114.93909192	-0.00971647	0.00600482	1.05892789	-0.00042513	-0.00227952	0.00029843	900	900	900	900
0.23962998 	115.17872190	-0.00970310	0.00600623	1.05893505	0.00055320	-0.00218285	0.00080823	900	900	900	900
0.31297898 	115.49170089	-0.00980083	0.00603578	1.05895174	-0.00188508	0.00027786	0.00091159	900	900	900	900
0.23501539 	115.72671628	-0.00980346	0.00603833	1.05900860	-0.00025412	-0.00056649	0.00253957	900	900	900	900
0.25524592 	115.98196220	-0.00978275	0.00602720	1.05900753	0.00101276	-0.00026454	0.00154538	900	900	900	900
0.21948934 	116.20145154	-0.00982107	0.00601463	1.05903482	0.00032334	-0.00122334	0.00056374	900	900	900	900
0.24998832 	116.45143986	-0.00977170	0.00604886	1.05897772	0.00083897	-0.00088801	0.00122048	900	900	900	900
0.24515843 	116.69659829	-0.00981360	0.00603978	1.05898023	0.00016524	0.00043172	0.00071755	900	900	900	900
0.19475102 	116.89134932	-0.00979841	0.00603361	1.05899978	0.00000223	-0.00153955	0.00094266	900	900	900	900
0.26041484 	117.15176415	-0.00978739	0.00604965	1.05900693	-0.00050455	-0.00058894	0.00112489	900	900	900	900
0.29040718 	117.44217134	-0.00987124	0.00603985	1.05900335	-0.00092707	-0.00091376	0.00178392	900	900	900	900
0.27565265 	117.71782398	-0.00985464	0.00602784	1.05900478	0.00010759	-0.00119758	0.00031633	900	900	900	900
0.23976564 	117.95758963	-0.00984702	0.00598100	1.05894339	-0.00048625	-0.00323265	-0.00148723	900	900	900	900
0.20931792 	118.16690755	-0.00983014	0.00597868	1.05897462	0.00067426	0.00000949	0.00155936	900	900	900	900
0.29108500 	118.45799255	-0.00978634	0.00595382	1.05893409	0.00021394	0.00029036	0.00174676	900	900	900	900
0.24025774 	118.69825029	-0.00977067	0.00594969	1.05894613	0.00069209	0.00130774	0.00172836	900	900	900	900
0.20437455 	118.90262485	-0.00980760	0.00594936	1.05882156	-0.00081791	0.00010699	-0.00066144	900	900	900	900
0.24576092 	119.14838576	-0.00984519	0.00598618	1.05885065	-0.00139299	-0.00312191	-0.00006788	900	900	900	900
0.24498820 	119.39337397	-0.00979105	0.00602727	1.05886114	0.00070216	-0.00198709	0.00072892	900	900	900	900
0.29124379 	119.68461776	-0.00977032	0.00609124	1.05883682	0.00044504	0.00026063	0.00021845	900	900	900	900
0.22421956 	119.90883732	-0.00977301	0.00611083	1.05882013	-0.00043369	0.00054445	0.00215158	900	900	900	900
0.24467826 	120.15351558	-0.00978031	0.00612290	1.05874872	0.00069054	-0.00110495	0.00137636	900	900	900	900
0.23459554 	120.38811111	-0.00980184	0.00616956	1.05871844	0.00007710	-0.00085577	0.00074315	900	900	900	900
0.28042865 	120.66853976	-0.00980325	0.00620163	1.05876231	-0.00098312	-0.00093663	0.00077138	900	900	900	900
0.27116847 	120.93970823	-0.00975872	0.00620867	1.05874455	0.00174605	-0.00025610	0.00269807	900	900	900	900
0.22991705 	121.16962528	-0.00976291	0.00631675	1.05879521	0.00138161	0.00185903	0.00072336	900	900	900	900
0.23477888 	121.40440416	-0.00977140	0.00638064	1.05877471	0.00081750	0.00192603	0.00174864	900	900	900	900
0.25897646 	121.66338062	-0.00984120	0.00630853	1.05874789	-0.00113618	0.00058570	0.00224376	900	900	900	900
0.25971961 	121.92310023	-0.00983456	0.00636228	1.05866969	-0.00042299	-0.00232851	0.00067157	900	900	900	900
0.24027777 	122.16337800	-0.00982953	0.00643065	1.05868149	-0.00051333	-0.00153450	0.00013763	900	900	900	900
0.33342910 	122.49680710	-0.00984387	0.00646251	1.05861199	-0.00186444	-0.00010148	0.00071313	900	900	900	900
0.24012971 	122.73693681	-0.00981503	0.00639526	1.05855012	0.00025846	-0.00060231	0.00188125	900	900	900	900
0.21419954 	122.95113635	-0.00981035	0.00645409	1.05855572	0.00064100	-0.00049639	0.00157315	900	900	900	900
0.19899154 	123.15012789	-0.00981739	0.00654357	1.05857956	0.00082057	-0.00068730	0.00150856	900	900	900	900
0.29597282 	123.44610071	-0.00978947	0.00659109	1.05854142	0.00006481	0.00097500	0.00113019	900	900	900	900
0.31110072 	123.75720143	-0.00978110	0.00659245	1.05849314	-0.00022460	-0.00092927	0.00124575	900	900	900	900
0.19985580 	123.95705724	-0.00972444	0.00659111	1.05843115	0.00013644	-0.00093669	0.00131683	900	900	900	900
0.21947241 	124.17652965	-0.00967960	0.00665309	1.05845273	0.00022601	0.00039881	0.00044018	900	900	900	900
0.23482108 	124.41135073	-0.00968874	0.00668000	1.05845428	-0.00001078	0.00095000	0.00148557	900	900	900	900
0.29154754 	124.70289826	-0.00971188	0.00666903	1.05840766	-0.00054349	-0.00076178	-0.00022573	900	900	900	900
0.18855810 	124.89145637	-0.00970730	0.00662663	1.05840921	-0.00042388	-0.00173196	0.00078490	900	900	900	900
0.22144175 	125.11289811	-0.00973024	0.00666015	1.05838013	-0.00126604	-0.00035735	0.00081020	900	900	900	900
0.24409366 	125.35699177	-0.00968969	0.00670034	1.05833530	-0.00034566	-0.00027641	0.00135656	900	900	900	900
0.24501324 	125.60200500	-0.00970153	0.00663968	1.05823493	-0.00032348	-0.00275573	-0.00062664	900	900	900	900
0.23991156 	125.84191656	-0.00970065	0.00664715	1.05814219	0.00089592	-0.00569508	0.00118551	900	900	900	900
0.24997807 	126.09189463	-0.00976789	0.00671304	1.05815434	0.00049731	-0.00079414	0.00245105	900	900	900	900
0.25576735 	126.34766197	-0.00979345	0.00673698	1.05812609	0.00075696	0.00408817	0.00202457	900	900	900	900
0.25507665 	126.60273862	-0.00985293	0.00677217	1.05807614	-0.00080879	0.00097992	0.00023357	900	900	900	900
0.26404166 	126.86678028	-0.00984997	0.00681683	1.05808115	-0.00031104	-0.00033329	0.00193657	900	900	900	900
0.30639291 	127.17317319	-0.00987075	0.00678308	1.05800974	-0.00095049	-0.00148037	-0.00041051	900	900	900	900
0.23465466 	127.40782785	-0.00989922	0.00678940	1.05804455	-0.00028325	-0.00077966	0.00137112	900	900	900	900
0.24025965 	127.64808750	-0.00986002	0.00681792	1.05804777	0.00027863	-0.00017397	0.00045334	900	900	900	900
0.29077172 	127.93885922	-0.00986618	0.00677560	1.05800068	-0.00017850	-0.00018505	0.00146172	900	900	900	900
0.17405725 	128.11291647	-0.00984394	0.00676189	1.05800676	0.00096436	-0.00028517	0.00257822	900	900	900	900
0.23438859 	128.34730506	-0.00981598	0.00682343	1.05798662	0.00111509	-0.00071652	0.00055003	900	900	900	900
0.24557352 	128.59287858	-0.00971482	0.00680518	1.05782700	0.00243990	-0.01395346	-0.00667435	900	900	900	900
0.27404499 	128.86692357	-0.00976226	0.00689467	1.05795276	0.00202543	0.00108504	0.00147192	900	900	900	900
0.52456236 	129.39148593	-0.00985410	0.00690245	1.05801284	-0.00000532	0.00246487	0.00186850	900	900	900	900
0.48498917 	129.87647510	-0.00988429	0.00680634	1.05788958	-0.00170483	0.00055976	0.00122931	900	900	900	900
0.55578017 	130.43225527	-0.00987384	0.00681170	1.05781102	0.00002043	-0.00112952	0.00039388	900	900	900	900
0.30204749 	130.73430276	-0.00986470	0.00690836	1.05772388	-0.00046876	0.00007039	0.00058721	900	900	900	900
0.21995902 	130.95426178	-0.00981365	0.00693555	1.05760896	0.00030327	0.00010729	0.00103887	900	900	900	900
0.19906425 	131.15332603	-0.00976204	0.00684108	1.05750525	-0.00037459	-0.00029813	0.00012033	900	900	900	900
0.22994709 	131.38327312	-0.00971595	0.00683552	1.05742586	0.00047342	0.00101809	0.00199688	900	900	900	900
0.28485513 	131.66812825	-0.00975620	0.00688483	1.05732906	-0.00009996	0.00162118	-0.00071692	900	900	900	900
0.21455789 	131.88268614	-0.00971629	0.00680781	1.05729377	0.00002511	-0.00273581	0.00144047	900	900	900	900
0.20931840 	132.09200454	-0.00968237	0.00679621	1.05725551	-0.00006388	-0.00101865	0.00113319	900	900	900	900
0.21972942 	132.31173396	-0.00966314	0.00685601	1.05731964	0.00086740	-0.00011918	0.00120332	900	900	900	900
0.21933365 	132.53106761	-0.00967314	0.00686158	1.05732179	-0.00185598	-0.00209334	0.00033383	900	900	900	900
0.22954297 	132.76061058	-0.00960723	0.00684316	1.05727279	-0.00031548	-0.00083497	0.00177554	900	900	900	900
0.20939684 	132.97000742	-0.00963840	0.00684858	1.05722606	-0.00029757	-0.00084595	0.00033736	900	900	900	900
0.25091982 	133.22092724	-0.00962854	0.00686476	1.05719924	0.00122901	0.00002000	0.00096968	900	900	900	900
0.21946383 	133.44039106	-0.00963014	0.00680449	1.05715990	-0.00079323	-0.00011127	0.00093550	900	900	900	900
0.20936561 	133.64975667	-0.00962191	0.00678551	1.05713761	-0.00037162	0.00011455	0.00167105	900	900	900	900
0.26990867 	133.91966534	-0.00963070	0.00682220	1.05707908	0.00061496	-0.00098757	0.00132032	900	900	900	900
0.23517227 	134.15483761	-0.00966094	0.00682164	1.05707002	-0.00120105	-0.00146517	0.00131822	900	900	900	900
0.24023128 	134.39506888	-0.00961653	0.00686498	1.05699861	0.00098227	0.00074335	0.00173346	900	900	900	900
0.22987199 	134.62494087	-0.00961229	0.00680958	1.05694926	-0.00165044	-0.00046324	0.00134437	900	900	900	900
0.21933293 	134.84427381	-0.00963247	0.00680683	1.05688214	-0.00044314	-0.00078102	0.00159568	900	900	900	900
0.24521732 	135.08949113	-0.00964059	0.00682792	1.05684257	0.00037468	-0.00057395	0.00018134	900	900	900	900
0.23451233 	135.32400346	-0.00960012	0.00684436	1.05681276	-0.00070840	0.00021519	0.00081009	900	900	900	900
0.23472786 	135.55873132	-0.00960248	0.00679999	1.05679989	0.00105171	-0.00118799	0.00072161	900	900	900	900
0.23506021 	135.79379153	-0.00957386	0.00683481	1.05672336	-0.00143307	-0.00225592	-0.00130208	900	900	900	900
0.23522949 	136.02902102	-0.00962924	0.00685099	1.05665922	-0.00076466	0.00006205	0.00041717	900	900	900	900
0.22950149 	136.25852251	-0.00961069	0.00680186	1.05661011	0.00048672	0.00006833	0.00169649	900	900	900	900
0.21959066 	136.47811317	-0.00957757	0.00676466	1.05660796	-0.00007485	-0.00171412	0.00252197	900	900	900	900
0.20936847 	136.68748164	-0.00960029	0.00678211	1.05655539	0.00001756	-0.00121209	0.00174290	900	900	900	900
0.24011683 	136.92759848	-0.00971018	0.00690931	1.05650187	-0.00382240	-0.00014943	-0.00121478	900	900	900	900
0.22957015 	137.15716863	-0.00964602	0.00683423	1.05647910	0.00036528	-0.00258933	0.00029023	900	900	900	900
0.25101209 	137.40818071	-0.00965329	0.00677477	1.05648363	0.00129443	-0.00028840	0.00114505	900	900	900	900
0.26103401 	137.66921473	-0.00973598	0.00683787	1.05648196	-0.00162873	-0.00099387	0.00119529	900	900	900	900
0.22995710 	137.89917183	-0.00969663	0.00689035	1.05654144	-0.00245696	-0.00114536	0.00291752	900	900	900	900
