deltaTime(s)	Time(s)	Roll(rad)	Pitch(rad)	Yaw(rad)	RollSpeed(rad/s)	PitchSpeed(rad/s)	YawSpeed(rad/s)	Motor1(PWM)	Motor2(PWM)	Motor3(PWM)	Motor4(PWM)	
0.16779709 	0.16779709	0.00387660	-0.00528802	2.44796848	-0.00131730	-0.00061171	0.00330588	900	900	900	900
0.38703680 	0.55483389	0.00391245	-0.00525494	2.44782639	0.00090825	-0.00026893	0.00068184	900	900	900	900
0.20978117 	0.76461506	0.00395455	-0.00518581	2.44746733	-0.00025903	-0.00061584	0.00043335	900	900	900	900
0.22013855 	0.98475361	0.00390425	-0.00520146	2.44726300	0.00009424	-0.00108526	0.00076888	900	900	900	900
0.21564126 	1.20039487	0.00391013	-0.00511494	2.44717503	-0.00107260	-0.00020434	0.00517096	900	900	900	900
0.21466947 	1.41506433	0.00385195	-0.00501709	2.44694281	-0.00059218	0.00197064	-0.00621174	900	900	900	900
0.15846777 	1.57353210	0.00384801	-0.00507782	2.44682240	0.00025284	-0.00105669	0.00592956	900	900	900	900
0.18368721 	1.75721931	0.00384530	-0.00502747	2.44679832	-0.00041183	0.00037166	-0.00027999	900	900	900	900
0.22838902 	1.98560834	0.00378634	-0.00505869	2.44673204	-0.00117651	-0.00084823	0.00720105	900	900	900	900
0.26501560 	2.25062394	0.00378585	-0.00510920	2.44673777	0.00005335	0.00082084	0.00257287	900	900	900	900
0.23901320 	2.48963714	0.00375277	-0.00504178	2.44654942	0.00041028	0.00124031	-0.00235141	900	900	900	900
0.22979999 	2.71943712	0.00375499	-0.00508499	2.44653368	0.00058992	-0.00223677	0.00181563	900	900	900	900
0.26548553 	2.98492265	0.00377893	-0.00506258	2.44660258	-0.00092184	0.00126450	0.00343563	900	900	900	900
0.23206091 	3.21698356	0.00380177	-0.00503877	2.44630194	0.00013412	-0.00000607	-0.00093941	900	900	900	900
0.25737405 	3.47435760	0.00380347	-0.00505194	2.44623446	-0.00011164	-0.00100976	0.00129518	900	900	900	900
0.24366117 	3.71801877	0.00385438	-0.00507565	2.44623280	0.00004560	-0.00158184	0.00174089	900	900	900	900
0.25442314 	3.97244191	0.00392276	-0.00504012	2.44616985	0.00034959	-0.00017295	-0.00197393	900	900	900	900
0.24182796 	4.21426988	0.00390525	-0.00507255	2.44612670	0.00014105	-0.00010998	0.00367225	900	900	900	900
0.27092457 	4.48519444	0.00387632	-0.00510749	2.44603944	-0.00059065	0.00004684	-0.00048762	900	900	900	900
0.23947906 	4.72467351	0.00390549	-0.00514811	2.44601774	-0.00038200	-0.00110763	0.00110213	900	900	900	900
0.24313140 	4.96780491	0.00394683	-0.00518911	2.44603753	-0.00035510	-0.00102797	-0.00003684	900	900	900	900
0.24666953 	5.21447444	0.00400078	-0.00514325	2.44603753	-0.00021743	0.00171981	-0.00173666	900	900	900	900
0.26289129 	5.47736573	0.00396127	-0.00519128	2.44606805	-0.00059328	0.00065495	0.00549399	900	900	900	900
0.23006535 	5.70743108	0.00396620	-0.00525368	2.44605851	0.00040123	-0.00190505	0.00185396	900	900	900	900
0.26899552 	5.97642660	0.00395250	-0.00530796	2.44620419	0.00080580	-0.00086354	-0.00138658	900	900	900	900
0.23801327 	6.21443987	0.00392191	-0.00531202	2.44612360	0.00084606	0.00045307	0.00113959	900	900	900	900
0.26011086 	6.47455072	0.00390584	-0.00537913	2.44608927	-0.00065540	-0.00040473	0.00702484	900	900	900	900
0.25293660 	6.72748733	0.00388937	-0.00538656	2.44608712	-0.00073570	-0.00177670	0.00037081	900	900	900	900
0.25382280 	6.98131013	0.00390542	-0.00542736	2.44603872	-0.00047876	-0.00029191	-0.00183990	900	900	900	900
0.22907519 	7.21038532	0.00395729	-0.00551270	2.44611955	-0.00081427	-0.00016815	0.00711138	900	900	900	900
0.29198837 	7.50237370	0.00396916	-0.00555581	2.44599676	-0.00089434	0.00214245	0.00346800	900	900	900	900
0.21200204 	7.71437573	0.00401265	-0.00558312	2.44602609	-0.00046318	0.00098982	0.00230891	900	900	900	900
0.26970792 	7.98408365	0.00402213	-0.00566584	2.44606805	-0.00026053	-0.00138719	0.00380721	900	900	900	900
0.24281240 	8.22689605	0.00406376	-0.00572380	2.44599843	-0.00119298	-0.00068192	0.00130301	900	900	900	900
0.30047131 	8.52736735	0.00406038	-0.00578246	2.44597793	-0.00126420	-0.00052868	0.00225857	900	900	900	900
0.20173001 	8.72909737	0.00407861	-0.00581794	2.44594216	-0.00009074	-0.00036835	0.00057074	900	900	900	900
0.24014616 	8.96924353	0.00407868	-0.00583833	2.44596720	0.00018234	-0.00021910	0.00074449	900	900	900	900
0.24974751 	9.21899104	0.00410320	-0.00586660	2.44601011	-0.00064327	-0.00118840	0.00053057	900	900	900	900
0.29155087 	9.51054192	0.00411586	-0.00590886	2.44597673	-0.00049109	-0.00096394	0.00173607	900	900	900	900
0.20912361 	9.71966553	0.00414449	-0.00594507	2.44606423	-0.00078797	-0.00110437	0.00191145	900	900	900	900
0.25826836 	9.97793388	0.00416131	-0.00591719	2.44607067	-0.00011541	-0.00024689	0.00044041	900	900	900	900
0.26343703 	10.24137092	0.00417537	-0.00589857	2.44607496	0.00053100	-0.00042963	0.00093882	900	900	900	900
0.25318432 	10.49455523	0.00423007	-0.00593743	2.44608808	0.00083855	-0.00191010	0.00150398	900	900	900	900
0.24297857 	10.73753381	0.00422881	-0.00595437	2.44615436	-0.00033096	-0.00076517	0.00111435	900	900	900	900
0.23756003 	10.97509384	0.00422971	-0.00596254	2.44613814	-0.00005301	-0.00133043	0.00074866	900	900	900	900
0.27712011 	11.25221395	0.00425589	-0.00595950	2.44609332	-0.00027874	-0.00132454	-0.00140615	900	900	900	900
0.22454739 	11.47676134	0.00423765	-0.00593272	2.44618821	-0.00128117	0.00009635	-0.00029273	900	900	900	900
0.27133155 	11.74809289	0.00425950	-0.00590404	2.44627380	-0.00011956	-0.00042103	0.00141318	900	900	900	900
0.21895075 	11.96704364	0.00422291	-0.00588402	2.44631910	-0.00072646	-0.00044373	0.00301559	900	900	900	900
0.26199031 	12.22903395	0.00423091	-0.00586980	2.44637871	-0.00012820	-0.00090846	0.00052813	900	900	900	900
0.23329020 	12.46232414	0.00421380	-0.00587698	2.44642687	-0.00133194	-0.00073153	0.00192441	900	900	900	900
0.25209498 	12.71441913	0.00418467	-0.00589388	2.44642782	0.00074053	-0.00129637	0.00212787	900	900	900	900
0.30759549 	13.02201462	0.00409185	-0.00588936	2.44641304	-0.00046417	-0.00234748	0.00004703	900	900	900	900
0.27034354 	13.29235816	0.00407837	-0.00586609	2.44653940	-0.00045444	0.00099896	0.00230046	900	900	900	900
0.22000670 	13.51236486	0.00408343	-0.00589116	2.44635892	0.00094474	-0.00153167	0.00182554	900	900	900	900
0.26537943 	13.77774429	0.00406334	-0.00588006	2.44634867	0.00038186	-0.00219009	-0.00197202	900	900	900	900
0.25222874 	14.02997303	0.00404515	-0.00586208	2.44640875	-0.00044990	-0.00173992	0.00086511	900	900	900	900
0.25514150 	14.28511453	0.00394476	-0.00582609	2.44644928	-0.00099870	-0.00007791	0.00120878	900	900	900	900
0.22963572 	14.51475024	0.00394466	-0.00583499	2.44645667	-0.00038297	-0.00000001	0.00283653	900	900	900	900
0.27086067 	14.78561091	0.00399387	-0.00579283	2.44642282	0.00038885	0.00007927	-0.00035036	900	900	900	900
0.21988606 	15.00549698	0.00393434	-0.00584076	2.44655704	-0.00058343	-0.00080977	0.00451837	900	900	900	900
0.27473879 	15.28023577	0.00390723	-0.00590796	2.44655943	0.00025981	-0.00118443	0.00210107	900	900	900	900
0.22977662 	15.51001239	0.00389950	-0.00589519	2.44654179	-0.00057400	-0.00071467	0.00012276	900	900	900	900
0.28066611 	15.79067850	0.00387688	-0.00588308	2.44660330	-0.00059140	-0.00101533	-0.00010026	900	900	900	900
0.18876076 	15.97943926	0.00385719	-0.00588486	2.44669580	0.00022587	-0.00109214	0.00066421	900	900	900	900
0.24692130 	16.22636056	0.00387996	-0.00590435	2.44669175	-0.00008471	-0.00036140	0.00184432	900	900	900	900
0.25589275 	16.48225331	0.00384221	-0.00594004	2.44659281	0.00002011	-0.00025723	0.00210350	900	900	900	900
0.23673320 	16.71898651	0.00381799	-0.00594988	2.44657159	-0.00066598	-0.00164825	0.00093291	900	900	900	900
0.25805163 	16.97703815	0.00380610	-0.00592276	2.44649076	-0.00050963	-0.00191926	-0.00038266	900	900	900	900
0.23119497 	17.20823312	0.00381531	-0.00590392	2.44648361	0.00026089	-0.00154423	0.00000799	900	900	900	900
0.25598097 	17.46421409	0.00378434	-0.00587538	2.44653654	-0.00004574	-0.00081830	0.00085556	900	900	900	900
0.24942851 	17.71364260	0.00382258	-0.00582430	2.44647169	0.00031247	-0.00007847	-0.00192201	900	900	900	900
0.25961018 	17.97325277	0.00377848	-0.00578483	2.44637394	-0.00044473	-0.00056591	0.00000143	900	900	900	900
0.25508499 	18.22833776	0.00377254	-0.00581016	2.44643188	-0.00045791	-0.00110384	0.00149360	900	900	900	900
0.22986150 	18.45819926	0.00378031	-0.00575723	2.44644880	-0.00040863	-0.00044010	0.00445416	900	900	900	900
0.27058268 	18.72878194	0.00376851	-0.00579695	2.44651794	0.00021149	-0.00033016	0.00769391	900	900	900	900
0.24524546 	18.97402740	0.00382021	-0.00578848	2.44634128	0.00033900	-0.00029037	-0.00078370	900	900	900	900
0.35816073 	19.33218813	0.00380365	-0.00575736	2.44635725	-0.00136393	0.00061435	-0.00035342	900	900	900	900
0.17188954 	19.50407767	0.00380737	-0.00575066	2.44625688	-0.00270769	-0.00054657	0.00150846	900	900	900	900
0.24431014 	19.74838781	0.00383005	-0.00579723	2.44622993	-0.00042876	-0.00191526	0.00096667	900	900	900	900
0.22998834 	19.97837615	0.00379475	-0.00577475	2.44626784	-0.00068896	0.00029952	-0.00300795	900	900	900	900
0.38284612 	20.36122227	0.00380805	-0.00578280	2.44636083	-0.00064297	0.00275608	0.00884689	900	900	900	900
0.42085290 	20.78207517	0.00381419	-0.00583217	2.44597125	0.00032924	-0.00049942	0.00236319	900	900	900	900
0.44666696 	21.22874212	0.00381535	-0.00578862	2.44585824	0.00075666	0.00061709	-0.00406491	900	900	900	900
0.22482705 	21.45356917	0.00382407	-0.00577937	2.44564986	0.00109709	-0.00104392	-0.00126993	900	900	900	900
0.21947861 	21.67304778	0.00375829	-0.00582393	2.44561744	0.00104393	-0.00120333	0.00068026	900	900	900	900
0.26541781 	21.93846560	0.00377988	-0.00578069	2.44541097	-0.00034888	0.00009686	-0.00063631	900	900	900	900
0.27104616 	22.20951176	0.00382977	-0.00574018	2.44537544	-0.00031961	0.00012360	-0.00086453	900	900	900	900
0.23489428 	22.44440603	0.00379749	-0.00574392	2.44543886	-0.00071909	-0.00126502	0.00166052	900	900	900	900
0.16809106 	22.61249709	0.00378370	-0.00572815	2.44545865	-0.00050305	-0.00047979	0.00003660	900	900	900	900
0.09139943 	22.70389652	0.00379860	-0.00570447	2.44543529	0.00021604	-0.00097396	-0.00087787	900	900	900	900
0.12831092 	22.83220744	0.00375798	-0.00570879	2.44556189	-0.00047777	-0.00075884	0.00267208	900	900	900	900
0.16335058 	22.99555802	0.00375968	-0.00566487	2.44556713	0.00052720	-0.00029970	0.00042156	900	900	900	900
0.24587083 	23.24142885	0.00375634	-0.00566290	2.44558477	0.00227460	-0.00101554	-0.00093289	900	900	900	900
0.23338723 	23.47481608	0.00374615	-0.00562936	2.44560266	-0.00023299	-0.00067295	0.00067557	900	900	900	900
0.24604702 	23.72086310	0.00377535	-0.00564234	2.44568634	0.00009569	-0.00081187	0.00263472	900	900	900	900
0.24817705 	23.96904016	0.00379497	-0.00565535	2.44579196	-0.00009478	-0.00132475	0.00194741	900	900	900	900
0.24842000 	24.21746016	0.00384871	-0.00562865	2.44574976	0.00050203	-0.00155132	0.00043395	900	900	900	900
0.24540257 	24.46286273	0.00384540	-0.00563697	2.44583535	-0.00015146	-0.00113344	-0.00244801	900	900	900	900
0.27545285 	24.73831558	0.00385395	-0.00563150	2.44591236	0.00028111	-0.00050946	-0.00016456	900	900	900	900
0.23317146 	24.97148705	0.00384029	-0.00565279	2.44592714	-0.00078155	-0.00118352	0.00030560	900	900	900	900
0.29260588 	25.26409292	0.00379182	-0.00570576	2.44612980	-0.00074315	-0.00122275	0.00102244	900	900	900	900
0.23544836 	25.49954128	0.00379061	-0.00573674	2.44616079	-0.00007542	-0.00023520	0.00170811	900	900	900	900
0.24406958 	25.74361086	0.00381134	-0.00576699	2.44613886	-0.00122271	0.00011518	0.00023814	900	900	900	900
0.24317312 	25.98678398	0.00384621	-0.00577793	2.44631028	0.00024718	0.00062690	-0.00042756	900	900	900	900
0.23977041 	26.22655439	0.00383224	-0.00586085	2.44636559	-0.00054989	0.00035615	0.00303401	900	900	900	900
0.23167181 	26.45822620	0.00385224	-0.00587221	2.44642258	0.00010578	0.00004678	0.00556863	900	900	900	900
0.28102922 	26.73925543	0.00379648	-0.00593480	2.44639206	-0.00028814	-0.00156679	0.00117283	900	900	900	900
0.22914004 	26.96839547	0.00379064	-0.00590986	2.44659162	-0.00178385	0.00000314	0.00262554	900	900	900	900
0.26331615 	27.23171163	0.00384137	-0.00590897	2.44662738	-0.00025238	0.00081093	0.00172402	900	900	900	900
0.25552058 	27.48723221	0.00388472	-0.00594230	2.44660449	0.00047274	-0.00093308	0.00213721	900	900	900	900
0.24039531 	27.72762752	0.00381974	-0.00599204	2.44665742	-0.00030962	-0.00143173	0.00054206	900	900	900	900
0.23699808 	27.96462560	0.00377922	-0.00606578	2.44679332	-0.00168019	-0.00247793	0.00577744	900	900	900	900
0.28477001 	28.24939561	0.00381913	-0.00605760	2.44691944	0.00036867	-0.00243880	0.00101572	900	900	900	900
0.25405908 	28.50345469	0.00383844	-0.00599027	2.44683647	-0.00128396	-0.00023456	-0.00152489	900	900	900	900
0.22933507 	28.73278975	0.00388614	-0.00600521	2.44697332	0.00027474	-0.00009925	0.00073992	900	900	900	900
0.24916124 	28.98195100	0.00386446	-0.00596095	2.44709587	0.00059048	-0.00084165	0.00193065	900	900	900	900
0.25367379 	29.23562479	0.00386807	-0.00593933	2.44712853	0.00067585	-0.00096196	0.00068710	900	900	900	900
0.25139403 	29.48701882	0.00388868	-0.00600628	2.44714284	0.00028499	-0.00274177	0.00079212	900	900	900	900
0.28651643 	29.77353525	0.00386324	-0.00600081	2.44726849	-0.00043445	-0.00102837	0.00008591	900	900	900	900
0.18805242 	29.96158767	0.00390902	-0.00592826	2.44735050	0.00076715	0.00003628	0.00097031	900	900	900	900
0.27118301 	30.23277068	0.00391774	-0.00588959	2.44739866	0.00054203	-0.00077274	0.00271278	900	900	900	900
0.25887990 	30.49165058	0.00391548	-0.00586487	2.44745588	0.00056110	-0.00077946	0.00045399	900	900	900	900
0.23788929 	30.72953987	0.00389658	-0.00589990	2.44748521	-0.00041961	-0.00143036	0.00099569	900	900	900	900
0.23992038 	30.96946025	0.00392560	-0.00587539	2.44752693	-0.00061983	-0.00144006	0.00428660	900	900	900	900
0.23470259 	31.20416284	0.00391215	-0.00587748	2.44759154	-0.00074578	-0.00161257	0.00257851	900	900	900	900
0.24999356 	31.45415640	0.00393928	-0.00585788	2.44757199	0.00001993	-0.00001171	-0.00068075	900	900	900	900
0.28128195 	31.73543835	0.00396726	-0.00587155	2.44760346	0.00079049	-0.00113534	0.00025444	900	900	900	900
0.25690317 	31.99234152	0.00392741	-0.00581860	2.44775915	-0.00019201	-0.00074177	0.00168412	900	900	900	900
0.23464918 	32.22699070	0.00394518	-0.00583272	2.44776845	0.00009924	-0.00125057	0.00244464	900	900	900	900
0.25043774 	32.47742844	0.00400179	-0.00582107	2.44779062	-0.00017763	-0.00162008	0.00040904	900	900	900	900
0.23442149 	32.71184993	0.00407772	-0.00577355	2.44787931	-0.00013425	0.00006229	-0.00048742	900	900	900	900
0.27555466 	32.98740458	0.00405216	-0.00572247	2.44791484	-0.00009684	-0.00080812	0.00155491	900	900	900	900
0.28327322 	33.27067780	0.00406225	-0.00574654	2.44804478	-0.00040433	-0.00030571	0.00212548	900	900	900	900
0.20386147 	33.47453928	0.00403232	-0.00570114	2.44807220	-0.00026892	-0.00024093	0.00072352	900	900	900	900
0.23867607 	33.71321535	0.00404290	-0.00570893	2.44816279	0.00025854	-0.00081564	0.00234137	900	900	900	900
0.25150537 	33.96472073	0.00409050	-0.00569177	2.44828272	0.00076197	-0.00125753	0.00091988	900	900	900	900
0.26452780 	34.22924852	0.00410405	-0.00563199	2.44826317	0.00041810	-0.00044769	0.00048711	900	900	900	900
0.26331234 	34.49256086	0.00409472	-0.00561370	2.44828486	-0.00042125	-0.00070409	0.00110545	900	900	900	900
0.21955919 	34.71212006	0.00409227	-0.00561690	2.44840717	0.00087899	-0.00076386	0.00036713	900	900	900	900
0.25833082 	34.97045088	0.00407685	-0.00563775	2.44846654	0.00046975	-0.00096608	0.00047325	900	900	900	900
0.49355102 	35.46400189	0.00405913	-0.00561247	2.44856787	0.00103814	-0.00157521	0.00085028	900	900	900	900
0.67026496 	36.13426685	0.00401346	-0.00555145	2.44850087	-0.00138057	0.00017771	0.00116234	900	900	900	900
0.27305460 	36.40732145	0.00400976	-0.00553426	2.44849420	-0.00036056	-0.00050678	0.00028825	900	900	900	900
0.12202883 	36.52935028	0.00400436	-0.00549000	2.44846988	-0.00017328	-0.00113226	-0.00020399	900	900	900	900
0.11676335 	36.64611363	0.00396304	-0.00547206	2.44842792	-0.00104691	-0.00120239	0.00244309	900	900	900	900
0.09161592 	36.73772955	0.00396594	-0.00543659	2.44825149	-0.00089731	-0.00094820	0.00089886	900	900	900	900
0.15301728 	36.89074683	0.00398639	-0.00544328	2.44824934	-0.00044998	-0.00069442	-0.00072614	900	900	900	900
0.10684371 	36.99759054	0.00399058	-0.00546443	2.44834518	0.00005056	-0.00143624	0.00220993	900	900	900	900
0.22972345 	37.22731400	0.00402692	-0.00547264	2.44840384	-0.00033457	-0.00109516	0.00104632	900	900	900	900
0.24268174 	37.46999574	0.00405107	-0.00545362	2.44844723	0.00004216	-0.00103549	0.00046214	900	900	900	900
0.27982306 	37.74981880	0.00405796	-0.00544196	2.44855022	0.00154771	-0.00084938	0.00069657	900	900	900	900
0.24500966 	37.99482846	0.00407235	-0.00543663	2.44861364	0.00148674	-0.00062731	0.00306200	900	900	900	900
0.24340200 	38.23823047	0.00406805	-0.00542996	2.44862890	0.00050455	-0.00076136	0.00075611	900	900	900	900
0.24182081 	38.48005128	0.00407617	-0.00537203	2.44868493	-0.00008753	-0.00102940	0.00110067	900	900	900	900
0.23028278 	38.71033406	0.00404301	-0.00530508	2.44874167	-0.00049044	0.00075493	0.00105347	900	900	900	900
0.50798583 	39.21831989	0.00412618	-0.00542756	2.44874096	0.00149887	-0.00198618	0.00143460	900	900	900	900
0.55953169 	39.77785158	0.00410204	-0.00546303	2.44875813	-0.00026437	-0.00124131	-0.00073600	900	900	900	900
0.23471045 	40.01256204	0.00407355	-0.00544940	2.44864726	-0.00040146	0.00011901	0.00100969	900	900	900	900
0.28049874 	40.29306078	0.00408967	-0.00545815	2.44857097	0.00036314	-0.00098554	0.00115195	900	900	900	900
0.20963573 	40.50269651	0.00411188	-0.00542310	2.44851828	0.00040473	-0.00099084	0.00110514	900	900	900	900
0.20443797 	40.70713449	0.00408632	-0.00540253	2.44844031	-0.00118787	-0.00051437	0.00024270	900	900	900	900
0.21440220 	40.92153668	0.00414311	-0.00538802	2.44845867	-0.00020324	-0.00078169	0.00112314	900	900	900	900
0.21996737 	41.14150405	0.00417710	-0.00531213	2.44851685	-0.00015451	-0.00009672	0.00071896	900	900	900	900
0.22494125 	41.36644530	0.00417338	-0.00528949	2.44861698	0.00048195	-0.00058302	-0.00015180	900	900	900	900
0.25523257 	41.62167788	0.00421177	-0.00526493	2.44868016	-0.00029458	-0.00047376	0.00211146	900	900	900	900
0.22000575 	41.84168363	0.00420185	-0.00531223	2.44877458	-0.00047402	-0.00155266	0.00243070	900	900	900	900
0.23022699 	42.07191062	0.00415818	-0.00530153	2.44874310	-0.00042308	-0.00015786	-0.00112414	900	900	900	900
0.21981907 	42.29172969	0.00415614	-0.00530907	2.44893718	0.00064113	0.00004115	0.00122714	900	900	900	900
0.20960402 	42.50133371	0.00408931	-0.00531726	2.44906878	-0.00153235	-0.00004629	0.00221511	900	900	900	900
0.20941734 	42.71075106	0.00404958	-0.00532615	2.44912362	-0.00164757	-0.00085129	0.00559539	900	900	900	900
0.25572634 	42.96647739	0.00412904	-0.00530716	2.44913387	-0.00071327	0.00077371	-0.00065143	900	900	900	900
0.23994613 	43.20642352	0.00415466	-0.00530645	2.44911671	-0.00016951	-0.00138581	-0.00064701	900	900	900	900
0.20958018 	43.41600370	0.00414932	-0.00526076	2.44928241	0.00050287	-0.00162695	-0.00058643	900	900	900	900
0.20934606 	43.62534976	0.00411058	-0.00530735	2.44939971	0.00024649	-0.00131040	0.00178410	900	900	900	900
0.22003460 	43.84538436	0.00410132	-0.00529115	2.44945931	-0.00011067	-0.00129470	0.00147955	900	900	900	900
0.20929718 	44.05468154	0.00411441	-0.00525152	2.44953704	-0.00035561	-0.00006187	-0.00109753	900	900	900	900
0.20942283 	44.26410437	0.00409328	-0.00521209	2.44951105	-0.00058278	0.00002662	-0.00009759	900	900	900	900
0.26460981 	44.52871418	0.00405670	-0.00521815	2.44970989	-0.00031875	0.00012398	0.00480056	900	900	900	900
0.22526670 	44.75398088	0.00397155	-0.00517816	2.44973421	-0.00013782	-0.00088241	0.00418671	900	900	900	900
0.27179694 	45.02577782	0.00392154	-0.00519693	2.44980097	-0.00243654	-0.00096072	0.00016359	900	900	900	900
0.23758769 	45.26336551	0.00396819	-0.00517065	2.44986129	0.00009583	-0.00053726	-0.00274468	900	900	900	900
0.24718022 	45.51054573	0.00395850	-0.00518872	2.45002222	-0.00015457	-0.00235504	0.00426500	900	900	900	900
0.25041199 	45.76095772	0.00392597	-0.00524412	2.45026183	-0.00135556	-0.00021054	0.00487237	900	900	900	900
0.25477505 	46.01573277	0.00399514	-0.00520183	2.45028496	-0.00121767	0.00080640	-0.00113513	900	900	900	900
0.24233675 	46.25806952	0.00401947	-0.00518348	2.45041299	0.00016464	-0.00049423	0.00195751	900	900	900	900
0.25483537 	46.51290488	0.00399194	-0.00516799	2.45047283	-0.00105551	-0.00146159	0.00291135	900	900	900	900
0.24260306 	46.75550795	0.00401580	-0.00520130	2.45068836	-0.00124403	-0.00020871	0.00212762	900	900	900	900
0.25988030 	47.01538825	0.00396193	-0.00521288	2.45076776	-0.00007101	-0.00031507	-0.00053941	900	900	900	900
0.24527311 	47.26066136	0.00399880	-0.00522061	2.45082569	0.00098551	-0.00069413	-0.00398685	900	900	900	900
0.26492143 	47.52558279	0.00404244	-0.00524312	2.45085740	0.00052465	-0.00229093	-0.00245757	900	900	900	900
0.23544788 	47.76103067	0.00400744	-0.00532179	2.45112371	-0.00049160	-0.00161208	0.00126397	900	900	900	900
0.25522947 	48.01626015	0.00397828	-0.00539128	2.45131898	-0.00042573	-0.00037168	0.00327215	900	900	900	900
0.25494218 	48.27120233	0.00394962	-0.00544056	2.45140290	-0.00145148	-0.00214176	0.00586284	900	900	900	900
0.23453164 	48.50573397	0.00399126	-0.00543887	2.45158935	0.00051343	-0.00210321	-0.00079567	900	900	900	900
0.25261402 	48.75834799	0.00391238	-0.00541856	2.45173979	-0.00002479	-0.00064549	-0.00126004	900	900	900	900
0.25031114 	49.00865912	0.00386562	-0.00547761	2.45203328	-0.00061093	-0.00095964	0.00442104	900	900	900	900
0.26008868 	49.26874781	0.00387894	-0.00547018	2.45204663	-0.00112657	0.00058908	0.00001794	900	900	900	900
0.24190736 	49.51065516	0.00388816	-0.00549629	2.45226479	-0.00040345	-0.00039174	0.00468030	900	900	900	900
0.25992632 	49.77058148	0.00389553	-0.00549890	2.45236111	-0.00055314	0.00001562	0.00110703	900	900	900	900
0.23996568 	50.01054716	0.00380588	-0.00551688	2.45246124	-0.00061679	-0.00068081	-0.00015331	900	900	900	900
0.26491308 	50.27546024	0.00382909	-0.00556865	2.45257711	-0.00047351	-0.00049627	0.00120657	900	900	900	900
0.24790955 	50.52336979	0.00379542	-0.00561657	2.45273495	-0.00013278	-0.00050450	0.00255329	900	900	900	900
0.24514604 	50.76851583	0.00379379	-0.00560800	2.45285082	-0.00021048	-0.00060813	-0.00020480	900	900	900	900
0.24457574 	51.01309156	0.00372680	-0.00562860	2.45302963	-0.00056071	-0.00057200	0.00350044	900	900	900	900
0.25024319 	51.26333475	0.00370871	-0.00563383	2.45318604	-0.00014699	-0.00037902	0.00163074	900	900	900	900
0.26010060 	51.52343535	0.00372844	-0.00563841	2.45321035	-0.00081843	-0.00120002	-0.00027017	900	900	900	900
0.24070287 	51.76413822	0.00373477	-0.00565765	2.45330787	0.00023152	-0.00090909	-0.00183615	900	900	900	900
0.26506162 	52.02919984	0.00369206	-0.00566342	2.45355988	-0.00097705	-0.00087276	0.00276568	900	900	900	900
0.23994946 	52.26914930	0.00369677	-0.00564939	2.45355320	0.00019733	-0.00078788	-0.00112153	900	900	900	900
0.25936365 	52.52851295	0.00373257	-0.00569456	2.45373678	-0.00059170	-0.00115372	0.00630134	900	900	900	900
0.25074029 	52.77925324	0.00373365	-0.00568014	2.45380974	0.00025674	-0.00036847	-0.00115747	900	900	900	900
0.22384810 	53.00310135	0.00372555	-0.00568487	2.45390987	-0.00036213	-0.00126900	-0.00017930	900	900	900	900
0.26008344 	53.26318479	0.00369257	-0.00567972	2.45398688	-0.00016212	-0.00105584	-0.00007010	900	900	900	900
0.24189711 	53.50508189	0.00372702	-0.00570514	2.45424080	0.00064828	-0.00043185	0.00244209	900	900	900	900
0.26574683 	53.77082872	0.00377777	-0.00567708	2.45419073	0.00058265	0.00009585	-0.00718607	900	900	900	900
0.23979306 	54.01062179	0.00381888	-0.00567992	2.45438671	0.00057019	0.00002545	-0.00114753	900	900	900	900
0.26486111 	54.27548289	0.00386413	-0.00564576	2.45446324	0.00020626	-0.00100511	0.00174027	900	900	900	900
0.27550888 	54.55099177	0.00386286	-0.00564844	2.45453691	0.00074520	-0.00174158	-0.00000066	900	900	900	900
0.26064873 	54.81164050	0.00384513	-0.00555797	2.45458126	-0.00116539	-0.00101445	-0.00190990	900	900	900	900
0.23035836 	55.04199886	0.00384479	-0.00555141	2.45482683	-0.00080499	-0.00083807	0.00067041	900	900	900	900
0.22032690 	55.26232576	0.00382750	-0.00548337	2.45487666	-0.00118747	-0.00070389	-0.00180112	900	900	900	900
0.25002766 	55.51235342	0.00388773	-0.00548307	2.45498562	-0.00038678	0.00006853	0.00355185	900	900	900	900
0.24798536 	55.76033878	0.00393796	-0.00545685	2.45510411	0.00056705	-0.00002015	0.00533253	900	900	900	900
0.26495099 	56.02528977	0.00399310	-0.00551252	2.45512915	0.00036892	-0.00098949	-0.00069560	900	900	900	900
0.25968194 	56.28497171	0.00408095	-0.00544676	2.45509005	-0.00075810	-0.00005358	-0.00413454	900	900	900	900
0.23500967 	56.51998138	0.00408178	-0.00540777	2.45516396	-0.00117027	-0.00074615	0.00446659	900	900	900	900
0.28108835 	56.80106974	0.00415122	-0.00539704	2.45525050	-0.00081851	-0.00038495	-0.00158860	900	900	900	900
0.20953131 	57.01060104	0.00414334	-0.00535952	2.45530009	0.00036608	-0.00011255	-0.00191868	900	900	900	900
0.28039217 	57.29099321	0.00415458	-0.00538296	2.45560074	-0.00054950	-0.00037283	0.00708414	900	900	900	900
0.25522041 	57.54621363	0.00411115	-0.00536347	2.45565248	-0.00184590	-0.00031900	-0.00028901	900	900	900	900
0.28622890 	57.83244252	0.00413862	-0.00530894	2.45575452	-0.00119017	0.00099800	-0.00180474	900	900	900	900
0.22980976 	58.06225228	0.00422157	-0.00531786	2.45595694	0.00144658	-0.00139231	0.00465103	900	900	900	900
0.23986697 	58.30211926	0.00422678	-0.00527431	2.45597267	-0.00113511	-0.00018029	0.00056202	900	900	900	900
0.23509765 	58.53721690	0.00427558	-0.00521196	2.45602036	-0.00087806	-0.00015617	-0.00053620	900	900	900	900
0.22510576 	58.76232266	0.00435654	-0.00522679	2.45610189	0.00014591	-0.00192314	-0.00053214	900	900	900	900
0.25027251 	59.01259518	0.00434777	-0.00523368	2.45626807	-0.00057860	-0.00125325	0.00287606	900	900	900	900
0.25050020 	59.26309538	0.00437994	-0.00520832	2.45636559	-0.00032043	-0.00020768	0.00023863	900	900	900	900
0.26006937 	59.52316475	0.00442628	-0.00517534	2.45639920	-0.00035157	0.00005909	0.00033875	900	900	900	900
0.23014426 	59.75330901	0.00447824	-0.00511513	2.45646477	0.00004008	-0.00079502	0.00327449	900	900	900	900
0.26188874 	60.01519775	0.00446573	-0.00514784	2.45654655	-0.00086948	-0.00010829	0.00213560	900	900	900	900
0.26510549 	60.28030324	0.00451058	-0.00518004	2.45656943	-0.00044812	0.00034773	0.00100204	900	900	900	900
0.24489880 	60.52520204	0.00447966	-0.00517273	2.45665836	-0.00089084	-0.00121459	0.00378910	900	900	900	900
0.26538563 	60.79058766	0.00449726	-0.00518004	2.45675445	0.00020185	0.00052676	-0.00032431	900	900	900	900
0.21942616 	61.01001382	0.00443848	-0.00515478	2.45671415	-0.00140365	-0.00096241	-0.00182787	900	900	900	900
0.25538373 	61.26539755	0.00443925	-0.00513631	2.45684075	-0.00049869	-0.00122104	-0.00283965	900	900	900	900
0.24513960 	61.51053715	0.00445843	-0.00508576	2.45688534	-0.00039711	-0.00078727	0.00120452	900	900	900	900
0.29534960 	61.80588675	0.00444002	-0.00506343	2.45700026	-0.00103748	-0.00110307	0.00250867	900	900	900	900
0.20961881 	62.01550555	0.00440382	-0.00505219	2.45704103	-0.00017360	-0.00068531	0.00161123	900	900	900	900
0.25536513 	62.27087069	0.00434096	-0.00500403	2.45711088	-0.00087913	-0.00054213	0.00279195	900	900	900	900
0.25010514 	62.52097583	0.00427018	-0.00495756	2.45714450	-0.00002984	-0.00034835	-0.00071671	900	900	900	900
0.27609372 	62.79706955	0.00424057	-0.00492540	2.45724273	0.00047664	-0.00023499	-0.00280989	900	900	900	900
0.24488354 	63.04195309	0.00424927	-0.00488002	2.45735121	0.00072863	-0.00103877	0.00318723	900	900	900	900
0.22304106 	63.26499414	0.00425729	-0.00490629	2.45736742	-0.00097847	-0.00195945	0.00358046	900	900	900	900
0.25040293 	63.51539707	0.00415458	-0.00482292	2.45734978	-0.00126342	-0.00101001	-0.00695939	900	900	900	900
0.24021697 	63.75561404	0.00409400	-0.00484810	2.45752859	-0.00065970	-0.00032250	0.00162936	900	900	900	900
0.26480770 	64.02042174	0.00408038	-0.00479996	2.45755291	-0.00140218	-0.00056852	0.00358141	900	900	900	900
0.23703957 	64.25746131	0.00405334	-0.00479455	2.45761585	-0.00140380	-0.00049969	0.00167347	900	900	900	900
0.25488472 	64.51234603	0.00401507	-0.00474566	2.45762348	-0.00039431	-0.00028239	-0.00030845	900	900	900	900
0.25521970 	64.76756573	0.00398700	-0.00469017	2.45770836	0.00014416	0.00040776	0.00205290	900	900	900	900
0.25517726 	65.02274299	0.00398984	-0.00466117	2.45780826	0.00060722	0.00007788	0.00190605	900	900	900	900
0.23507977 	65.25782275	0.00397476	-0.00462286	2.45779181	-0.00055415	-0.00047908	-0.00281966	900	900	900	900
0.27509689 	65.53291965	0.00394061	-0.00462290	2.45782161	-0.00074195	-0.00240834	0.00394208	900	900	900	900
0.24020457 	65.77312422	0.00398934	-0.00462577	2.45793772	0.00014329	-0.00139816	0.00304074	900	900	900	900
0.25977731 	66.03290153	0.00394571	-0.00459818	2.45784712	0.00038262	-0.00183227	0.00044373	900	900	900	900
0.23199964 	66.26490116	0.00385467	-0.00456249	2.45781970	-0.00101983	-0.00137435	-0.00593448	900	900	900	900
0.24237251 	66.50727367	0.00378519	-0.00456137	2.45806360	-0.00032717	-0.00054650	0.00548292	900	900	900	900
0.25791955 	66.76519322	0.00374551	-0.00457126	2.45812678	-0.00326422	-0.00114383	0.00428531	900	900	900	900
0.23991728 	67.00511050	0.00370874	-0.00453861	2.45808649	-0.00049186	-0.00107100	-0.00398922	900	900	900	900
0.26007533 	67.26518583	0.00372537	-0.00453203	2.45843053	0.00011143	-0.00245999	0.00694049	900	900	900	900
0.23959422 	67.50478005	0.00376729	-0.00452033	2.45823121	-0.00100453	-0.00383460	-0.00454310	900	900	900	900
0.21230626 	67.71708632	0.00376944	-0.00449532	2.45837927	-0.00034077	-0.00124049	0.00032527	900	900	900	900
0.24738765 	67.96447396	0.00377927	-0.00444627	2.45840049	0.00008446	0.00088769	0.00019726	900	900	900	900
0.27558541 	68.24005938	0.00381467	-0.00442480	2.45839953	-0.00010481	-0.00029961	0.00174841	900	900	900	900
0.28478312 	68.52484250	0.00379848	-0.00437996	2.45852089	0.00018433	-0.00054024	0.00205142	900	900	900	900
0.18861008 	68.71345258	0.00381000	-0.00428857	2.45860004	0.00029595	0.00011350	0.00100633	900	900	900	900
0.25540113 	68.96885371	0.00382554	-0.00427034	2.45867968	-0.00008270	-0.00034900	0.00216755	900	900	900	900
0.25038433 	69.21923804	0.00386370	-0.00426604	2.45872188	-0.00042307	-0.00014207	0.00035719	900	900	900	900
0.25343418 	69.47267222	0.00384503	-0.00429241	2.45875454	-0.00034025	-0.00036378	0.00155932	900	900	900	900
0.26498008 	69.73765230	0.00386555	-0.00434374	2.45880890	-0.00042657	-0.00149858	0.00201536	900	900	900	900
0.23311377 	69.97076607	0.00387014	-0.00436885	2.45894146	0.00024287	-0.00068010	0.00201745	900	900	900	900
0.24825382 	70.21901989	0.00391243	-0.00440136	2.45899916	-0.00035621	-0.00083547	-0.00065150	900	900	900	900
0.24844694 	70.46746683	0.00390955	-0.00441591	2.45908570	-0.00088526	-0.00110759	0.00102483	900	900	900	900
0.24230981 	70.70977664	0.00397200	-0.00453536	2.45920992	0.00061445	-0.00058112	0.00147647	900	900	900	900
0.28192353 	70.99170017	0.00396829	-0.00455700	2.45930696	-0.00043769	-0.00050960	0.00219729	900	900	900	900
0.24228215 	71.23398232	0.00395252	-0.00460355	2.45938087	-0.00057104	-0.00029141	-0.00081231	900	900	900	900
0.23952055 	71.47350287	0.00399074	-0.00467573	2.45945120	-0.00067387	-0.00088031	0.00231713	900	900	900	900
0.26542735 	71.73893023	0.00400830	-0.00473992	2.45953417	-0.00084540	-0.00026507	0.00173096	900	900	900	900
0.23994541 	71.97887564	0.00399705	-0.00479006	2.45963502	0.00002524	-0.00143010	0.00113692	900	900	900	900
0.24451041 	72.22338605	0.00399917	-0.00481972	2.45974851	-0.00071383	-0.00045852	0.00092943	900	900	900	900
0.24991751 	72.47330356	0.00404595	-0.00488841	2.45980120	0.00021565	-0.00098827	0.00348509	900	900	900	900
0.25519586 	72.72849941	0.00406293	-0.00492477	2.45983005	-0.00016980	-0.00025606	-0.00023544	900	900	900	900
0.26412725 	72.99262667	0.00406550	-0.00499385	2.45991755	0.00045734	-0.00051125	0.00209278	900	900	900	900
0.22914815 	73.22177482	0.00410365	-0.00509112	2.46001911	-0.00001829	-0.00162573	0.00164227	900	900	900	900
0.25232577 	73.47410059	0.00415228	-0.00511500	2.46006250	-0.00000904	-0.00084409	0.00173461	900	900	900	900
0.25067973 	73.72478032	0.00417973	-0.00511904	2.46015358	-0.00080941	-0.00063735	0.00027805	900	900	900	900
0.24680972 	73.97159004	0.00420095	-0.00509070	2.46023560	0.00008869	-0.00050925	-0.00058140	900	900	900	900
0.25263309 	74.22422314	0.00419831	-0.00510306	2.46033287	-0.00083399	-0.00075215	0.00117341	900	900	900	900
0.25234461 	74.47656775	0.00419941	-0.00515601	2.46035457	0.00014075	-0.00013384	0.00048344	900	900	900	900
0.25717616 	74.73374391	0.00418340	-0.00520264	2.46049166	0.00016596	-0.00138642	0.00474698	900	900	900	900
0.24967313 	74.98341703	0.00421835	-0.00529232	2.46058273	0.00021230	-0.00093183	0.00094276	900	900	900	900
0.22952843 	75.21294546	0.00422862	-0.00529367	2.46072245	-0.00023621	0.00056647	0.00140381	900	900	900	900
0.26797628 	75.48092175	0.00424435	-0.00532555	2.46070766	-0.00031063	-0.00000548	-0.00084764	900	900	900	900
0.24101925 	75.72194099	0.00424176	-0.00530448	2.46083164	0.00005767	-0.00085739	0.00110625	900	900	900	900
0.24661708 	75.96855807	0.00423440	-0.00534676	2.46098375	-0.00001194	-0.00116376	0.00361422	900	900	900	900
0.25001478 	76.21857285	0.00422739	-0.00533461	2.46102786	-0.00112906	-0.00083196	0.00029038	900	900	900	900
0.25271082 	76.47128367	0.00422769	-0.00530247	2.46111655	0.00001477	-0.00074603	0.00165969	900	900	900	900
0.24510002 	76.71638370	0.00423586	-0.00529788	2.46117663	-0.00059324	-0.00055954	0.00117362	900	900	900	900
0.25871634 	76.97510004	0.00423344	-0.00533481	2.46129680	-0.00006562	-0.00081738	0.00115053	900	900	900	900
0.25884461 	77.23394465	0.00422032	-0.00533110	2.46145368	-0.00031779	-0.00043155	0.00259544	900	900	900	900
0.25516343 	77.48910809	0.00418095	-0.00531224	2.46150160	0.00001276	-0.00026968	-0.00036714	900	900	900	900
0.24163461 	77.73074269	0.00413734	-0.00531041	2.46159148	-0.00086033	-0.00096880	0.00256208	900	900	900	900
0.28363872 	78.01438141	0.00417726	-0.00530777	2.46171832	0.00003794	-0.00059137	0.00150656	900	900	900	900
0.24533153 	78.25971293	0.00420417	-0.00530912	2.46184397	0.00027726	-0.00053334	0.00328653	900	900	900	900
0.24967694 	78.50938988	0.00418371	-0.00532208	2.46187830	-0.00038542	-0.00116398	0.00423267	900	900	900	900
0.26565766 	78.77504754	0.00416518	-0.00526536	2.46189594	-0.00080185	-0.00059562	-0.00122192	900	900	900	900
0.23488951 	79.00993705	0.00423452	-0.00523894	2.46201968	-0.00027390	-0.00099072	0.00416099	900	900	900	900
0.26943946 	79.27937651	0.00427774	-0.00524194	2.46210313	0.00016318	-0.00131128	0.00217942	900	900	900	900
0.23221326 	79.51158977	0.00425827	-0.00521241	2.46207619	-0.00042533	-0.00058263	-0.00084703	900	900	900	900
0.24244714 	79.75403690	0.00426761	-0.00517475	2.46216440	-0.00049913	-0.00112857	0.00315603	900	900	900	900
0.25247598 	80.00651288	0.00422042	-0.00517923	2.46226120	-0.00052121	-0.00157189	0.00243952	900	900	900	900
0.25262761 	80.25914049	0.00424108	-0.00514065	2.46232295	-0.00133079	-0.00032221	0.00203216	900	900	900	900
0.27043653 	80.52957702	0.00420339	-0.00511278	2.46223235	0.00049363	0.00073951	-0.00305788	900	900	900	900
0.22049618 	80.75007319	0.00422145	-0.00508443	2.46226287	0.00164781	-0.00154462	-0.00257689	900	900	900	900
0.39742827 	81.14750147	0.00421987	-0.00513450	2.46245670	0.00022975	-0.00205836	0.00696974	900	900	900	900
0.43974638 	81.58724785	0.00415594	-0.00512217	2.46251440	0.00030977	-0.00168800	0.00191949	900	900	900	900
0.30893707 	81.89618492	0.00411341	-0.00512529	2.46244597	-0.00063663	-0.00058867	-0.00148610	900	900	900	900
0.29779363 	82.19397855	0.00411314	-0.00513285	2.46249199	-0.00041309	-0.00001799	0.00056188	900	900	900	900
0.20445108 	82.39842963	0.00410153	-0.00515739	2.46239662	-0.00008606	-0.00197795	0.00010851	900	900	900	900
0.20959926 	82.60802889	0.00415772	-0.00514355	2.46227336	0.00056314	-0.00073082	-0.00773744	900	900	900	900
0.20954704 	82.81757593	0.00417571	-0.00511903	2.46228790	-0.00015833	-0.00119031	0.00159105	900	900	900	900
0.22016740 	83.03774333	0.00414543	-0.00516139	2.46233082	-0.00094430	-0.00092002	0.00355765	900	900	900	900
0.20946121 	83.24720454	0.00418095	-0.00514092	2.46239567	-0.00001413	0.00037517	0.00021788	900	900	900	900
0.23292589 	83.48013043	0.00418550	-0.00510301	2.46238661	-0.00109376	0.00049670	0.00162746	900	900	900	900
0.21478939 	83.69491982	0.00428794	-0.00511283	2.46244383	0.00059177	-0.00073060	0.00217675	900	900	900	900
0.22542381 	83.92034364	0.00424279	-0.00514820	2.46251607	-0.00065404	-0.00114639	0.00263308	900	900	900	900
0.21453333 	84.13487697	0.00423753	-0.00514873	2.46255350	-0.00046504	-0.00065102	0.00017509	900	900	900	900
0.21480799 	84.34968495	0.00419412	-0.00514991	2.46259880	-0.00068485	-0.00063554	-0.00098823	900	900	900	900
0.20445704 	84.55414200	0.00429872	-0.00516313	2.46263218	-0.00008535	-0.00000402	0.00017781	900	900	900	900
0.22040415 	84.77454615	0.00434599	-0.00523245	2.46265244	-0.00030304	-0.00094400	0.00288303	900	900	900	900
0.36250830 	85.13705444	0.00431905	-0.00523034	2.46278381	-0.00157834	0.00067650	0.00144035	900	900	900	900
0.39069700 	85.52775145	0.00430145	-0.00520716	2.46277404	0.00005083	0.00010901	0.00180411	900	900	900	900
0.38969159 	85.91744304	0.00431555	-0.00512006	2.46257639	-0.00033239	0.00028095	-0.00026531	900	900	900	900
0.18358707 	86.10103011	0.00435755	-0.00514751	2.46258044	-0.00047194	-0.00097409	0.00258221	900	900	900	900
0.00995350 	86.11098361	0.00442050	-0.00515124	2.46247911	-0.00025202	-0.00043046	0.00150137	900	900	900	900
